countryCode,thematicIdIdentifier,thematicIdIdentifierScheme,monitoringSiteIdentifier,monitoringSiteIdentifierScheme,monitoringSiteName,waterBodyIdentifier,waterBodyIdentifierScheme,waterBodyName,specialisedZoneType,naturalAWBHMWB,reservoir,surfaceWaterBodyTypeCode,subUnitIdentifier,subUnitIdentifierScheme,subUnitName,rbdIdentifier,rbdIdentifierScheme,rbdName,confidentialityStatus,lat,lon
AT,ATFW10000027,euMonitoringSiteCode,ATFW10000027,euMonitoringSiteCode,WGEV-STELLE SEEHOF,ATOK1001940001,euSurfaceWaterBodyCode,WULKA_UL,riverWaterBody,Natural,Not a reservoir,MZB_13_2,AT1001,euSubUnitCode,DANUBE,AT1000,euRBDCode,DANUBE,F,47.86355,16.65678
AT,ATFW10000077,euMonitoringSiteCode,ATFW10000077,euMonitoringSiteCode,NICKELSDORF,ATOK1000730027,euSurfaceWaterBodyCode,LEITHA_NICKELSDORF,riverWaterBody,Natural,Not a reservoir,MZB_13_2,AT1001,euSubUnitCode,DANUBE,AT1000,euRBDCode,DANUBE,F,47.95455,17.07872
AT,ATFW10000087,euMonitoringSiteCode,ATFW10000087,euMonitoringSiteCode,NEUMARKT,ATOK1001040041,euSurfaceWaterBodyCode,RAAB_NEUMARKT,riverWaterBody,Natural,Not a reservoir,MZB_13_2,AT1001,euSubUnitCode,DANUBE,AT1000,euRBDCode,DANUBE,F,46.93264,16.17592
AT,ATFW10000177,euMonitoringSiteCode,ATFW10000177,euMonitoringSiteCode,BURG,ATOK1001680030,euSurfaceWaterBodyCode,PINKA_WOPPENDORF,riverWaterBody,Natural,Not a reservoir,MZB_13_2,AT1001,euSubUnitCode,DANUBE,AT1000,euRBDCode,DANUBE,F,47.20362,16.41487
AT,ATFW21500097,euMonitoringSiteCode,ATFW21500097,euMonitoringSiteCode,UNTERWASSER KW LAVAMÜND,ATOK900470058,euSurfaceWaterBodyCode,"DRAU (VON 411,2 BIS 435,8)",riverWaterBody,HMWB,Not a reservoir,"MZB_17_1,75",AT1001,euSubUnitCode,DANUBE,AT1000,euRBDCode,DANUBE,F,46.6404,14.94296
AT,ATFW21500306,euMonitoringSiteCode,ATFW21500306,euMonitoringSiteCode,ROSEGGER SCHLEIFE (DUEL),ATOK900470056,euSurfaceWaterBodyCode,"DRAU (VON 498,5 BIS 505,5)",riverWaterBody,Natural,Not a reservoir,"MZB_17_1,75",AT1001,euSubUnitCode,DANUBE,AT1000,euRBDCode,DANUBE,F,46.59416,14.03551
AT,ATFW21531167,euMonitoringSiteCode,ATFW21531167,euMonitoringSiteCode,THÖRL MAGLERN,ATOK901850012,euSurfaceWaterBodyCode,"GAILITZ (VON 6,0 BIS 7,6)",riverWaterBody,Natural,Not a reservoir,"MZB_7_1,25",AT1001,euSubUnitCode,DANUBE,AT1000,euRBDCode,DANUBE,F,46.53695,13.64813
AT,ATFW21550377,euMonitoringSiteCode,ATFW21550377,euMonitoringSiteCode,TRUTTENDORF,ATOK901970000,euSurfaceWaterBodyCode,"GURK (VON 0,0 BIS 9,5)",riverWaterBody,Natural,Not a reservoir,"MZB_15_1,75",AT1001,euSubUnitCode,DANUBE,AT1000,euRBDCode,DANUBE,F,46.6052,14.44229
AT,ATFW21551267,euMonitoringSiteCode,ATFW21551267,euMonitoringSiteCode,ZELL/GURNITZ,ATOK903760009,euSurfaceWaterBodyCode,"GLAN (VON 0,0 BIS 5,3)",riverWaterBody,Natural,Not a reservoir,"MZB_15_1,75",AT1001,euSubUnitCode,DANUBE,AT1000,euRBDCode,DANUBE,F,46.60627,14.40153
AT,ATFW21553436,euMonitoringSiteCode,ATFW21553436,euMonitoringSiteCode,INNERE WIMITZ,ATOK902110000,euSurfaceWaterBodyCode,"WIMITZBACH (VON 17,0 BIS 32,9)",riverWaterBody,Natural,Not a reservoir,"MZB_3_1,5",AT1001,euSubUnitCode,DANUBE,AT1000,euRBDCode,DANUBE,F,46.83515,14.30787
AT,ATFW21560297,euMonitoringSiteCode,ATFW21560297,euMonitoringSiteCode,KROTTENDORF,ATOK902870022,euSurfaceWaterBodyCode,"LAVANT (VON 0,0 BIS 6,0)",riverWaterBody,Natural,Not a reservoir,"MZB_15_1,75",AT1001,euSubUnitCode,DANUBE,AT1000,euRBDCode,DANUBE,F,46.6633,14.94478
AT,ATFW30800027,euMonitoringSiteCode,ATFW30800027,euMonitoringSiteCode,PYBURG,ATOK411270002,euSurfaceWaterBodyCode,"KRAFTWERKSKANAL ST. PANTALEON (ENNS)_02, EP GROß",riverWaterBody,AWB,Not a reservoir,"MZB_11_1,5",AT1001,euSubUnitCode,DANUBE,AT1000,euRBDCode,DANUBE,F,48.22718,14.53283
AT,ATFW30900037,euMonitoringSiteCode,ATFW30900037,euMonitoringSiteCode,AMSTETTEN,ATOK408810031,euSurfaceWaterBodyCode,"YBBS_01, EP MITTEL",riverWaterBody,Natural,Not a reservoir,"MZB_11_1,75",AT1001,euSubUnitCode,DANUBE,AT1000,euRBDCode,DANUBE,F,48.10187,14.94072
AT,ATFW30900167,euMonitoringSiteCode,ATFW30900167,euMonitoringSiteCode,VORDERE TORMÄUER,ATOK409470001,euSurfaceWaterBodyCode,"ERLAUF_05, MR",riverWaterBody,Natural,Not a reservoir,"MZB_5_1,75",AT1001,euSubUnitCode,DANUBE,AT1000,euRBDCode,DANUBE,F,47.91275,15.20308
AT,ATFW30900217,euMonitoringSiteCode,ATFW30900217,euMonitoringSiteCode,OBERLOIBEN,ATOK410350000,euSurfaceWaterBodyCode,"DONAU_06, KW MELK BIS MAUTERN, EP GROß",riverWaterBody,Natural,Not a reservoir,"MZB_16_1,75",AT1001,euSubUnitCode,DANUBE,AT1000,euRBDCode,DANUBE,F,48.38892,15.52308
AT,ATFW30900227,euMonitoringSiteCode,ATFW30900227,euMonitoringSiteCode,TRAISEN UNTERHALB TRAISMAUER,ATOK411080008,euSurfaceWaterBodyCode,"TRAISEN_02, EP MITTEL 2",riverWaterBody,Natural,Not a reservoir,MZB_13_2,AT1001,euSubUnitCode,DANUBE,AT1000,euRBDCode,DANUBE,F,48.36702,15.77878
AT,ATFW31000067,euMonitoringSiteCode,ATFW31000067,euMonitoringSiteCode,GRUNDDORF,ATOK408650004,euSurfaceWaterBodyCode,"KAMP_02, EP MITTEL 2",riverWaterBody,Natural,Not a reservoir,MZB_13_2,AT1001,euSubUnitCode,DANUBE,AT1000,euRBDCode,DANUBE,F,48.41189,15.70696
AT,ATFW31000137,euMonitoringSiteCode,ATFW31000137,euMonitoringSiteCode,MANNSWÖRTH,ATOK405880049,euSurfaceWaterBodyCode,"SCHWECHAT_01, EP MITTEL 2",riverWaterBody,Natural,Not a reservoir,MZB_13_2,AT1001,euSubUnitCode,DANUBE,AT1000,euRBDCode,DANUBE,F,48.1439,16.52945
AT,ATFW31000177,euMonitoringSiteCode,ATFW31000177,euMonitoringSiteCode,FISCHAMEND,ATOK405880027,euSurfaceWaterBodyCode,"FISCHA_01, EP GROß",riverWaterBody,Natural,Not a reservoir,MZB_13_2,AT1001,euSubUnitCode,DANUBE,AT1000,euRBDCode,DANUBE,F,48.12035,16.60938
AT,ATFW31000187,euMonitoringSiteCode,ATFW31000187,euMonitoringSiteCode,WILDUNGSMAUER,ATOK409040008,euSurfaceWaterBodyCode,"DONAU_02, KW FREUDENAU BIS DEVIN, EP GROß",riverWaterBody,Natural,Not a reservoir,MZB_16_2,AT1001,euSubUnitCode,DANUBE,AT1000,euRBDCode,DANUBE,F,48.11661,16.80332
AT,ATFW31000247,euMonitoringSiteCode,ATFW31000247,euMonitoringSiteCode,"ABSDORF, UH ARA",ATOK408330038,euSurfaceWaterBodyCode,"SCHMIDA_02, EP KLEIN",riverWaterBody,Natural,Not a reservoir,MZB_13_2,AT1001,euSubUnitCode,DANUBE,AT1000,euRBDCode,DANUBE,F,48.40232,15.99301
AT,ATFW31000377,euMonitoringSiteCode,ATFW31000377,euMonitoringSiteCode,HAINBURG,ATOK411340000,euSurfaceWaterBodyCode,"DONAU_01, UNTERHALB DEVIN, EP GROß",riverWaterBody,Natural,Not a reservoir,MZB_16_2,AT1001,euSubUnitCode,DANUBE,AT1000,euRBDCode,DANUBE,F,48.16339,16.99035
AT,ATFW31000397,euMonitoringSiteCode,ATFW31000397,euMonitoringSiteCode,NOVA VES,ATOK200510004,euSurfaceWaterBodyCode,"LAINSITZ_01, EP MITTEL",riverWaterBody,Natural,Not a reservoir,"MZB_12_1,75",AT5100,euSubUnitCode,ELBE,AT5000,euRBDCode,ELBE,F,48.80995,14.93289
AT,ATFW31100027,euMonitoringSiteCode,ATFW31100027,euMonitoringSiteCode,ALT PRERAU,ATOK501930000,euSurfaceWaterBodyCode,"THAYA_03, EP MITTEL 2",riverWaterBody,Natural,Not a reservoir,MZB_18_2,AT1001,euSubUnitCode,DANUBE,AT1000,euRBDCode,DANUBE,F,48.80483,16.46219
AT,ATFW31100037,euMonitoringSiteCode,ATFW31100037,euMonitoringSiteCode,BERNHARDSTHAL,ATOK501940000,euSurfaceWaterBodyCode,"THAYA_02, MP",riverWaterBody,Natural,Not a reservoir,MZB_18_2,AT1001,euSubUnitCode,DANUBE,AT1000,euRBDCode,DANUBE,F,48.71619,16.88903
AT,ATFW31100057,euMonitoringSiteCode,ATFW31100057,euMonitoringSiteCode,HOHENAU,ATOK500020001,euSurfaceWaterBodyCode,"MARCH, MP",riverWaterBody,Natural,Not a reservoir,MZB_18_2,AT1001,euSubUnitCode,DANUBE,AT1000,euRBDCode,DANUBE,F,48.60164,16.93384
AT,ATFW31100077,euMonitoringSiteCode,ATFW31100077,euMonitoringSiteCode,MARCHEGG,ATOK500020001,euSurfaceWaterBodyCode,"MARCH, MP",riverWaterBody,Natural,Not a reservoir,MZB_18_2,AT1001,euSubUnitCode,DANUBE,AT1000,euRBDCode,DANUBE,F,48.2801,16.91603
AT,ATFW31100127,euMonitoringSiteCode,ATFW31100127,euMonitoringSiteCode,OH NEUSIEDL AN DER ZAYA,ATOK501530017,euSurfaceWaterBodyCode,"ZAYA_01, EP KLEIN",riverWaterBody,Natural,Not a reservoir,MZB_13_2,AT1001,euSubUnitCode,DANUBE,AT1000,euRBDCode,DANUBE,F,48.60394,16.78833
AT,ATFW31100167,euMonitoringSiteCode,ATFW31100167,euMonitoringSiteCode,OH. PULKAUMDG.,ATOK501710003,euSurfaceWaterBodyCode,"THAYA_04, EP MITTEL 2",riverWaterBody,Natural,Not a reservoir,MZB_18_2,AT1001,euSubUnitCode,DANUBE,AT1000,euRBDCode,DANUBE,F,48.73447,16.34141
AT,ATFW31100187,euMonitoringSiteCode,ATFW31100187,euMonitoringSiteCode,OH. JUNGBUNZLAUER,ATOK501330025,euSurfaceWaterBodyCode,"PULKAU_01, EP KLEIN",riverWaterBody,Natural,Not a reservoir,MZB_13_2,AT1001,euSubUnitCode,DANUBE,AT1000,euRBDCode,DANUBE,F,48.71833,16.26886
AT,ATFW40502017,euMonitoringSiteCode,ATFW40502017,euMonitoringSiteCode,INN BRAUNAU,ATOK305340009,euSurfaceWaterBodyCode,INN_ERING_FRAUENSTEIN,riverWaterBody,HMWB,Not a reservoir,"MZB_17_1,75",AT1001,euSubUnitCode,DANUBE,AT1000,euRBDCode,DANUBE,F,48.26102,13.03435
AT,ATFW40502037,euMonitoringSiteCode,ATFW40502037,euMonitoringSiteCode,INN INGLING,ATOK305340011,euSurfaceWaterBodyCode,INN_INGLING UNTERWASSER-FLIEßSTRECKE,riverWaterBody,Natural,Not a reservoir,"MZB_17_1,75",AT1001,euSubUnitCode,DANUBE,AT1000,euRBDCode,DANUBE,F,48.55699,13.43859
AT,ATFW40505037,euMonitoringSiteCode,ATFW40505037,euMonitoringSiteCode,ANTIESEN ANTIESENHOFEN,ATOK305760056,euSurfaceWaterBodyCode,ANTIESEN_OUL_1,riverWaterBody,Natural,Not a reservoir,"MZB_11_1,75",AT1001,euSubUnitCode,DANUBE,AT1000,euRBDCode,DANUBE,F,48.34667,13.40754
AT,ATFW40607017,euMonitoringSiteCode,ATFW40607017,euMonitoringSiteCode,JOCHENSTEIN,ATOK303070000,euSurfaceWaterBodyCode,DONAU,riverWaterBody,HMWB,Not a reservoir,"MZB_16_1,75",AT1001,euSubUnitCode,DANUBE,AT1000,euRBDCode,DANUBE,F,48.52066,13.70222
AT,ATFW40619016,euMonitoringSiteCode,ATFW40619016,euMonitoringSiteCode,ASCHACH PFAFFING,ATOK408710066,euSurfaceWaterBodyCode,ASCHACH_UL,riverWaterBody,Natural,Not a reservoir,"MZB_11_1,75",AT1001,euSubUnitCode,DANUBE,AT1000,euRBDCode,DANUBE,F,48.35795,13.9936
AT,ATFW40709117,euMonitoringSiteCode,ATFW40709117,euMonitoringSiteCode,TRAUN EBELSBERG ,ATOK412090028,euSurfaceWaterBodyCode,TRAUN_EBELSBERG-RWSTRECKE,riverWaterBody,Natural,Not a reservoir,"MZB_17_1,75",AT1001,euSubUnitCode,DANUBE,AT1000,euRBDCode,DANUBE,F,48.24742,14.32475
AT,ATFW40710047,euMonitoringSiteCode,ATFW40710047,euMonitoringSiteCode,AGER FISCHERAU,ATOK411140116,euSurfaceWaterBodyCode,AGER,riverWaterBody,Natural,Not a reservoir,"MZB_11_1,75",AT1001,euSubUnitCode,DANUBE,AT1000,euRBDCode,DANUBE,F,48.08597,13.83805
AT,ATFW40713047,euMonitoringSiteCode,ATFW40713047,euMonitoringSiteCode,KREMS ANSFELDEN,ATOK411200007,euSurfaceWaterBodyCode,KREMS,riverWaterBody,Natural,Not a reservoir,"MZB_11_1,75",AT1001,euSubUnitCode,DANUBE,AT1000,euRBDCode,DANUBE,F,48.19949,14.26613
AT,ATFW40823016,euMonitoringSiteCode,ATFW40823016,euMonitoringSiteCode,GROßER BACH OH. ANZENBACH,ATOK411310001,euSurfaceWaterBodyCode,REICHRAMINGBACH,riverWaterBody,Natural,Not a reservoir,"MZB_5_1,75",AT1001,euSubUnitCode,DANUBE,AT1000,euRBDCode,DANUBE,F,47.84903,14.45561
AT,ATFW40907057,euMonitoringSiteCode,ATFW40907057,euMonitoringSiteCode,ENGHAGEN,ATOK410360009,euSurfaceWaterBodyCode,"DONAU_09 KW ABWINDEN_ASTEN BIS KW WALLSEE_MITTERKIRCHEN, EP GROß",riverWaterBody,HMWB,Not a reservoir,"MZB_16_1,75",AT1001,euSubUnitCode,DANUBE,AT1000,euRBDCode,DANUBE,F,48.23985,14.51108
AT,ATFW40916017,euMonitoringSiteCode,ATFW40916017,euMonitoringSiteCode,GUSEN ST. GEORGEN/G.,ATOK410210027,euSurfaceWaterBodyCode,GUSEN_ST.GEORGEN,riverWaterBody,Natural,Not a reservoir,"MZB_12_1,75",AT1001,euSubUnitCode,DANUBE,AT1000,euRBDCode,DANUBE,F,48.26595,14.44966
AT,ATFW51110127,euMonitoringSiteCode,ATFW51110127,euMonitoringSiteCode,HÖGMOOS,ATOK304690002,euSurfaceWaterBodyCode,"GEWÄSSER: SALZACH, ABSCHNITT: KW AUSLEITUNG IN HÖGMOOS BIS FUSCHERACHENMÜNDUNG",riverWaterBody,HMWB,Not a reservoir,"MZB_2_1,5",AT1001,euSubUnitCode,DANUBE,AT1000,euRBDCode,DANUBE,F,47.28474,12.87638
AT,ATFW52120107,euMonitoringSiteCode,ATFW52120107,euMonitoringSiteCode,GASTEINER ACHE,ATOK304690010,euSurfaceWaterBodyCode,"GEWÄSSER: GASTEINERACHE, ABSCHNITT: KLAMMSTEIN BIS KW REMSACH",riverWaterBody,HMWB,Not a reservoir,"MZB_2_1,5",AT1001,euSubUnitCode,DANUBE,AT1000,euRBDCode,DANUBE,F,47.16323,13.10776
AT,ATFW53110037,euMonitoringSiteCode,ATFW53110037,euMonitoringSiteCode,MÜNDUNG,ATOK305690000,euSurfaceWaterBodyCode,"GEWÄSSER: LAMMER, ABSCHNITT: SALZACH BIS WIRRAU",riverWaterBody,Natural,Not a reservoir,"MZB_11_1,75",AT1001,euSubUnitCode,DANUBE,AT1000,euRBDCode,DANUBE,F,47.58507,13.17595
AT,ATFW53110047,euMonitoringSiteCode,ATFW53110047,euMonitoringSiteCode,GOLLING,ATOK305350002,euSurfaceWaterBodyCode,"GEWÄSSER: SALZACH, ABSCHNITT: TAUGLMÜNDUNG BIS BLÜHNBACHMÜNDUNG",riverWaterBody,Natural,Not a reservoir,"MZB_17_1,75",AT1001,euSubUnitCode,DANUBE,AT1000,euRBDCode,DANUBE,F,47.58084,13.1744
AT,ATFW54110017,euMonitoringSiteCode,ATFW54110017,euMonitoringSiteCode,HELLBRUNNER BRÜCKE,ATOK305350004,euSurfaceWaterBodyCode,"GEWÄSSER: SALZACH, ABSCHNITT: VON DER SAALACHMÜNDUNG BIS KW URSTEIN",riverWaterBody,HMWB,Not a reservoir,"MZB_17_1,75",AT1001,euSubUnitCode,DANUBE,AT1000,euRBDCode,DANUBE,F,47.752,13.07933
AT,ATFW54110087,euMonitoringSiteCode,ATFW54110087,euMonitoringSiteCode,OBERNDORF-ST.PANTALEON,ATOK307200003,euSurfaceWaterBodyCode,"GEWÄSSER: SALZACH, ABSCHNITT: LANDESGRENZE BIS SAALACHMÜNDUNG",riverWaterBody,Natural,Not a reservoir,"MZB_17_1,75",AT1001,euSubUnitCode,DANUBE,AT1000,euRBDCode,DANUBE,F,47.95817,12.9028
AT,ATFW54110117,euMonitoringSiteCode,ATFW54110117,euMonitoringSiteCode,"UH. KW ROTT, Ü1",ATOK305600000,euSurfaceWaterBodyCode,"GEWÄSSER: SAALACH, ABSCHNITT: SALZACH BIS GRENZE ZU BAYERN",riverWaterBody,HMWB,Not a reservoir,"MZB_11_1,75",AT1001,euSubUnitCode,DANUBE,AT1000,euRBDCode,DANUBE,F,47.84241,13.00323
AT,ATFW55010057,euMonitoringSiteCode,ATFW55010057,euMonitoringSiteCode,KENDLBRUCK,ATOK801180001,euSurfaceWaterBodyCode,"GEWÄSSER: MUR, ABSCHNITT: LANDESGRENZE BIS KENDLBRUCK; 8011802",riverWaterBody,Natural,Not a reservoir,"MZB_2_1,5",AT1001,euSubUnitCode,DANUBE,AT1000,euRBDCode,DANUBE,F,47.06961,13.88198
AT,ATFW60800376,euMonitoringSiteCode,ATFW60800376,euMonitoringSiteCode,GESÄUSEEINGANG,ATOK411250009,euSurfaceWaterBodyCode,ENNS GESÄUSE,riverWaterBody,Natural,Not a reservoir,"MZB_17_1,75",AT1001,euSubUnitCode,DANUBE,AT1000,euRBDCode,DANUBE,F,47.58796,14.53681
AT,ATFW61300327,euMonitoringSiteCode,ATFW61300327,euMonitoringSiteCode,FÜRSTENFELD,ATOK1001380140,euSurfaceWaterBodyCode,FEISTRITZ,riverWaterBody,Natural,Not a reservoir,MZB_13_2,AT1001,euSubUnitCode,DANUBE,AT1000,euRBDCode,DANUBE,F,47.04019,16.10841
AT,ATFW61300337,euMonitoringSiteCode,ATFW61300337,euMonitoringSiteCode,ALTENMARKT/FÜRSTENFELD,ATOK1001380092,euSurfaceWaterBodyCode,LAFNITZ,riverWaterBody,Natural,Not a reservoir,MZB_13_2,AT1001,euSubUnitCode,DANUBE,AT1000,euRBDCode,DANUBE,F,47.0764,16.08784
AT,ATFW61400127,euMonitoringSiteCode,ATFW61400127,euMonitoringSiteCode,KALSDORF,ATOK802710015,euSurfaceWaterBodyCode,MUR,riverWaterBody,HMWB,Not a reservoir,"MZB_17_1,75",AT1001,euSubUnitCode,DANUBE,AT1000,euRBDCode,DANUBE,F,46.96774,15.48848
AT,ATFW61400137,euMonitoringSiteCode,ATFW61400137,euMonitoringSiteCode,AUTOBAHNBRÜCKE SPIELFELD,ATOK802710014,euSurfaceWaterBodyCode,MUR,riverWaterBody,HMWB,Not a reservoir,"MZB_17_1,75",AT1001,euSubUnitCode,DANUBE,AT1000,euRBDCode,DANUBE,F,46.7098,15.63399
AT,ATFW61400147,euMonitoringSiteCode,ATFW61400147,euMonitoringSiteCode,RADKERSBURG,ATOK804000000,euSurfaceWaterBodyCode,MUR (MURA),riverWaterBody,Natural,Not a reservoir,"MZB_17_1,75",AT1001,euSubUnitCode,DANUBE,AT1000,euRBDCode,DANUBE,F,46.68375,15.98716
AT,ATFW61400217,euMonitoringSiteCode,ATFW61400217,euMonitoringSiteCode,BRUCK/MUR MÜNDUNG,ATOK801780000,euSurfaceWaterBodyCode,MÜRZ,riverWaterBody,HMWB,Not a reservoir,"MZB_3_1,75",AT1001,euSubUnitCode,DANUBE,AT1000,euRBDCode,DANUBE,F,47.4122,15.27403
AT,ATFW61400267,euMonitoringSiteCode,ATFW61400267,euMonitoringSiteCode,WILDON,ATOK802780045,euSurfaceWaterBodyCode,KAINACH,riverWaterBody,HMWB,Not a reservoir,"MZB_14_1,75",AT1001,euSubUnitCode,DANUBE,AT1000,euRBDCode,DANUBE,F,46.88627,15.50421
AT,ATFW61400287,euMonitoringSiteCode,ATFW61400287,euMonitoringSiteCode,WAGNA,ATOK802790081N,euSurfaceWaterBodyCode,SULM,riverWaterBody,HMWB,Not a reservoir,"MZB_14_1,75",AT1001,euSubUnitCode,DANUBE,AT1000,euRBDCode,DANUBE,F,46.75497,15.54588
AT,ATFW61400597,euMonitoringSiteCode,ATFW61400597,euMonitoringSiteCode,BRUCK/MUR LEOBNERBRÜCKE,ATOK802710002,euSurfaceWaterBodyCode,MUR,riverWaterBody,HMWB,Not a reservoir,"MZB_17_1,75",AT1001,euSubUnitCode,DANUBE,AT1000,euRBDCode,DANUBE,F,47.40696,15.2614
AT,ATFW71500967,euMonitoringSiteCode,ATFW71500967,euMonitoringSiteCode,NIKOLSDORF,ATOK900470001,euSurfaceWaterBodyCode,DRAU,riverWaterBody,Natural,Not a reservoir,"MZB_17_1,75",AT1001,euSubUnitCode,DANUBE,AT1000,euRBDCode,DANUBE,F,46.7795,12.89269
AT,ATFW72100967,euMonitoringSiteCode,ATFW72100967,euMonitoringSiteCode,WEIßHAUS,ATOK307080000,euSurfaceWaterBodyCode,LECH,riverWaterBody,Natural,Not a reservoir,"MZB_6_1,5",AT1001,euSubUnitCode,DANUBE,AT1000,euRBDCode,DANUBE,F,47.55712,10.68661
AT,ATFW72200807,euMonitoringSiteCode,ATFW72200807,euMonitoringSiteCode,SCHARNITZ,ATOK302340001,euSurfaceWaterBodyCode,ISAR_1,riverWaterBody,Natural,Not a reservoir,"MZB_6_1,5",AT1001,euSubUnitCode,DANUBE,AT1000,euRBDCode,DANUBE,F,47.38018,11.28592
AT,ATFW73160967,euMonitoringSiteCode,ATFW73160967,euMonitoringSiteCode,LANDECK,ATOK304990003,euSurfaceWaterBodyCode,SANNA,riverWaterBody,Natural,Not a reservoir,"MZB_2_1,5",AT1001,euSubUnitCode,DANUBE,AT1000,euRBDCode,DANUBE,F,47.14321,10.56164
AT,ATFW73200617,euMonitoringSiteCode,ATFW73200617,euMonitoringSiteCode,MILS,ATOK304980006,euSurfaceWaterBodyCode,INN_2,riverWaterBody,HMWB,Not a reservoir,"MZB_17_1,75",AT1001,euSubUnitCode,DANUBE,AT1000,euRBDCode,DANUBE,F,47.2795,11.53381
AT,ATFW73200987,euMonitoringSiteCode,ATFW73200987,euMonitoringSiteCode,ERL,ATOK307030000,euSurfaceWaterBodyCode,INN,riverWaterBody,HMWB,Not a reservoir,"MZB_17_1,75",AT1001,euSubUnitCode,DANUBE,AT1000,euRBDCode,DANUBE,F,47.70106,12.16326
AT,ATFW73290907,euMonitoringSiteCode,ATFW73290907,euMonitoringSiteCode,STRASS I.Z.,ATOK304940001,euSurfaceWaterBodyCode,ZILLER,riverWaterBody,HMWB,Not a reservoir,"MZB_2_1,75",AT1001,euSubUnitCode,DANUBE,AT1000,euRBDCode,DANUBE,F,47.4016,11.83785
AT,ATFW73390967,euMonitoringSiteCode,ATFW73390967,euMonitoringSiteCode,KÖSSEN,ATOK300910019,euSurfaceWaterBodyCode,GROßACHE_1,riverWaterBody,Natural,Not a reservoir,"MZB_5_1,75",AT1001,euSubUnitCode,DANUBE,AT1000,euRBDCode,DANUBE,F,47.68845,12.39399
AT,ATFW80207027,euMonitoringSiteCode,ATFW80207027,euMonitoringSiteCode,"BREGENZERACH, BREGENZ",ATOK100930000,euSurfaceWaterBodyCode,BREGENZERACH,riverWaterBody,HMWB,Not a reservoir,"MZB_9_1,75",AT2100,euSubUnitCode,RHINE,AT2000,euRBDCode,RHINE,F,47.48693,9.72175
AT,ATFW80213067,euMonitoringSiteCode,ATFW80213067,euMonitoringSiteCode,"NEUER RHEIN, FUßACH",ATOK101090000,euSurfaceWaterBodyCode,RHEIN,riverWaterBody,HMWB,Not a reservoir,"MZB_17_1,75",AT2100,euSubUnitCode,RHINE,AT2000,euRBDCode,RHINE,F,47.47858,9.66989
AT,ATFW80214057,euMonitoringSiteCode,ATFW80214057,euMonitoringSiteCode,"ALTER RHEIN, GAIßAU",ATOK100910000,euSurfaceWaterBodyCode,ALTER RHEIN,riverWaterBody,HMWB,Not a reservoir,MZB_10_2,AT2100,euSubUnitCode,RHINE,AT2000,euRBDCode,RHINE,F,47.4637,9.59506
AT,ATFW80217097,euMonitoringSiteCode,ATFW80217097,euMonitoringSiteCode,"ALTER RHEIN, HÖCHST",ATOK100910000,euSurfaceWaterBodyCode,ALTER RHEIN,riverWaterBody,HMWB,Not a reservoir,MZB_10_2,AT2100,euSubUnitCode,RHINE,AT2000,euRBDCode,RHINE,F,47.45515,9.64957
AT,ATFW80218017,euMonitoringSiteCode,ATFW80218017,euMonitoringSiteCode,"LEIBLACH, HÖRBRANZ",ATOK100950002,euSurfaceWaterBodyCode,LEIBLACH,riverWaterBody,HMWB,Not a reservoir,"MZB_10_1,75",AT2100,euSubUnitCode,RHINE,AT2000,euRBDCode,RHINE,F,47.53503,9.73677
AT,ATFW80224047,euMonitoringSiteCode,ATFW80224047,euMonitoringSiteCode,"DORNBIRNERACH, LAUTERACH",ATOK101000000,euSurfaceWaterBodyCode,DORNBIRNERACH,riverWaterBody,HMWB,Not a reservoir,MZB_10_2,AT2100,euSubUnitCode,RHINE,AT2000,euRBDCode,RHINE,F,47.46275,9.68137
AT,ATFW80228287,euMonitoringSiteCode,ATFW80228287,euMonitoringSiteCode,"BREITACH, UH. SCHWARZWASSERBACH",ATOK300020000,euSurfaceWaterBodyCode,BREITACH,riverWaterBody,Natural,Not a reservoir,"MZB_8_1,5",AT1001,euSubUnitCode,DANUBE,AT1000,euRBDCode,DANUBE,F,47.37645,10.2071
AT,ATFW80404027,euMonitoringSiteCode,ATFW80404027,euMonitoringSiteCode,"ILL, FELDKIRCH",ATOK100880000,euSurfaceWaterBodyCode,ILL,riverWaterBody,HMWB,Not a reservoir,"MZB_10_1,75",AT2100,euSubUnitCode,RHINE,AT2000,euRBDCode,RHINE,F,47.26777,9.5746
AT,ATFW80411046,euMonitoringSiteCode,ATFW80411046,euMonitoringSiteCode,"FRUTZ, BAD LATERNS",ATOK100350000,euSurfaceWaterBodyCode,FRUTZ,riverWaterBody,Natural,Not a reservoir,"MZB_4_1,25",AT2100,euSubUnitCode,RHINE,AT2000,euRBDCode,RHINE,F,47.25813,9.78725
AT,ATFW92001017,euMonitoringSiteCode,ATFW92001017,euMonitoringSiteCode,NUßDORF,ATOK409040013,euSurfaceWaterBodyCode,"DONAU_03, KW GREIFENSTEIN BIS KW FREUDENAU, EP GROß",riverWaterBody,HMWB,Not a reservoir,MZB_16_2,AT1001,euSubUnitCode,DANUBE,AT1000,euRBDCode,DANUBE,F,48.26126,16.36984
AT,ATSE20101000,euMonitoringSiteCode,ATSE20101000,euMonitoringSiteCode,WÖRTHERSEE SAAG [TIEFSTE STELLE],ATOK9506600,euSurfaceWaterBodyCode,WÖRTHER SEE,lakeWaterBody,Natural,Not a reservoir,C1,AT1001,euSubUnitCode,DANUBE,AT1000,euRBDCode,DANUBE,F,46.63092,14.12236
AT,ATSE20201000,euMonitoringSiteCode,ATSE20201000,euMonitoringSiteCode,MILLSTÄTTER SEE [TIEFSTE STELLE],ATOK9506400,euSurfaceWaterBodyCode,MILLSTÄTTER SEE,lakeWaterBody,Natural,Not a reservoir,D3,AT1001,euSubUnitCode,DANUBE,AT1000,euRBDCode,DANUBE,F,46.77862,13.60786
AT,ATSE20301000,euMonitoringSiteCode,ATSE20301000,euMonitoringSiteCode,FAAKER SEE [TIEFSTE STELLE],ATOK9506000,euSurfaceWaterBodyCode,FAAKER SEE,lakeWaterBody,Natural,Not a reservoir,C1,AT1001,euSubUnitCode,DANUBE,AT1000,euRBDCode,DANUBE,F,46.58114,13.92674
AT,ATSE20401000,euMonitoringSiteCode,ATSE20401000,euMonitoringSiteCode,OSSIACHER SEE [TIEFSTE STELLE],ATOK9505600,euSurfaceWaterBodyCode,OSSIACHER SEE,lakeWaterBody,Natural,Not a reservoir,C1,AT1001,euSubUnitCode,DANUBE,AT1000,euRBDCode,DANUBE,F,46.66114,13.92918
AT,ATSE20501000,euMonitoringSiteCode,ATSE20501000,euMonitoringSiteCode,WEIßENSEE [TIEFSTE STELLE],ATOK9506500,euSurfaceWaterBodyCode,WEISSENSEE,lakeWaterBody,Natural,Not a reservoir,E2,AT1001,euSubUnitCode,DANUBE,AT1000,euRBDCode,DANUBE,F,46.70096,13.37748
AT,ATSE20601000,euMonitoringSiteCode,ATSE20601000,euMonitoringSiteCode,KEUTSCHACHER SEE [TIEFSTE STELLE],ATOK9506300,euSurfaceWaterBodyCode,KEUTSCHACHER SEE,lakeWaterBody,Natural,Not a reservoir,C1,AT1001,euSubUnitCode,DANUBE,AT1000,euRBDCode,DANUBE,F,46.5868,14.15743
AT,ATSE20701000,euMonitoringSiteCode,ATSE20701000,euMonitoringSiteCode,KLOPEINER SEE [TIEFSTE STELLE],ATOK9505900,euSurfaceWaterBodyCode,KLOPEINER SEE,lakeWaterBody,Natural,Not a reservoir,C1,AT1001,euSubUnitCode,DANUBE,AT1000,euRBDCode,DANUBE,F,46.60456,14.58547
AT,ATSE40101000,euMonitoringSiteCode,ATSE40101000,euMonitoringSiteCode,ATTERSEE MESSSTELLE,ATOK4500300,euSurfaceWaterBodyCode,ATTERSEE,lakeWaterBody,Natural,Not a reservoir,D1,AT1001,euSubUnitCode,DANUBE,AT1000,euRBDCode,DANUBE,F,47.81195,13.52951
AT,ATSE40201000,euMonitoringSiteCode,ATSE40201000,euMonitoringSiteCode,TRAUNSEE MESSSTELLE,ATOK4500500,euSurfaceWaterBodyCode,TRAUNSEE,lakeWaterBody,Natural,Not a reservoir,D1,AT1001,euSubUnitCode,DANUBE,AT1000,euRBDCode,DANUBE,F,47.85115,13.80277
AT,ATSE40301000,euMonitoringSiteCode,ATSE40301000,euMonitoringSiteCode,MONDSEE MESSSTELLE,ATOK4500200,euSurfaceWaterBodyCode,MONDSEE,lakeWaterBody,Natural,Not a reservoir,D1,AT1001,euSubUnitCode,DANUBE,AT1000,euRBDCode,DANUBE,F,47.80975,13.38753
AT,ATSE40401000,euMonitoringSiteCode,ATSE40401000,euMonitoringSiteCode,HALLSTÄTTER SEE MESSSTELLE,ATOK4501200,euSurfaceWaterBodyCode,HALLSTÄTTER SEE,lakeWaterBody,Natural,Not a reservoir,D1,AT1001,euSubUnitCode,DANUBE,AT1000,euRBDCode,DANUBE,F,47.57448,13.65921
AT,ATSE40501000,euMonitoringSiteCode,ATSE40501000,euMonitoringSiteCode,IRRSEE MESSSTELLE,ATOK4500100,euSurfaceWaterBodyCode,IRRSEE,lakeWaterBody,Natural,Not a reservoir,B2,AT1001,euSubUnitCode,DANUBE,AT1000,euRBDCode,DANUBE,F,47.90864,13.30674
AT,ATSE50101000,euMonitoringSiteCode,ATSE50101000,euMonitoringSiteCode,GILGENER BECKEN,ATOK4500400,euSurfaceWaterBodyCode,WOLFGANGSEE,lakeWaterBody,Natural,Not a reservoir,D1,AT1001,euSubUnitCode,DANUBE,AT1000,euRBDCode,DANUBE,F,47.75556,13.39144
AT,ATSE50102000,euMonitoringSiteCode,ATSE50102000,euMonitoringSiteCode,STROBLER BECKEN,ATOK4500400,euSurfaceWaterBodyCode,WOLFGANGSEE,lakeWaterBody,Natural,Not a reservoir,D1,AT1001,euSubUnitCode,DANUBE,AT1000,euRBDCode,DANUBE,F,47.72916,13.46002
AT,ATSE50201000,euMonitoringSiteCode,ATSE50201000,euMonitoringSiteCode,OBERTRUMER SEE MESSSTELLE ÜBER Z_MAX,ATOK3500600,euSurfaceWaterBodyCode,OBERTRUMER SEE,lakeWaterBody,Natural,Not a reservoir,B2,AT1001,euSubUnitCode,DANUBE,AT1000,euRBDCode,DANUBE,F,47.96552,13.08706
AT,ATSE50301000,euMonitoringSiteCode,ATSE50301000,euMonitoringSiteCode,ZELLER SEE MESSSTELLE ÜBER Z_MAX,ATOK3500800,euSurfaceWaterBodyCode,ZELLER SEE,lakeWaterBody,Natural,Not a reservoir,D3,AT1001,euSubUnitCode,DANUBE,AT1000,euRBDCode,DANUBE,F,47.32259,12.80874
AT,ATSE50401000,euMonitoringSiteCode,ATSE50401000,euMonitoringSiteCode,WALLERSEE MESSSTELLE ÜBER Z_MAX,ATOK3500700,euSurfaceWaterBodyCode,WALLERSEE,lakeWaterBody,Natural,Not a reservoir,B2,AT1001,euSubUnitCode,DANUBE,AT1000,euRBDCode,DANUBE,F,47.91023,13.17286
AT,ATSE50501000,euMonitoringSiteCode,ATSE50501000,euMonitoringSiteCode,MATTSEE MESSSTELLE ÜBER Z_MAX,ATOK3500500,euSurfaceWaterBodyCode,MATTSEE,lakeWaterBody,Natural,Not a reservoir,B2,AT1001,euSubUnitCode,DANUBE,AT1000,euRBDCode,DANUBE,F,47.98692,13.13176
AT,ATSE50601000,euMonitoringSiteCode,ATSE50601000,euMonitoringSiteCode,FUSCHLSEE MESSSTELLE ÜBER Z_MAX,ATOK4500000,euSurfaceWaterBodyCode,FUSCHLSEE,lakeWaterBody,Natural,Not a reservoir,D1,AT1001,euSubUnitCode,DANUBE,AT1000,euRBDCode,DANUBE,F,47.79944,13.28595
AT,ATSE50701000,euMonitoringSiteCode,ATSE50701000,euMonitoringSiteCode,GRABENSEE MESSSTELLE ÜBER Z_MAX,ATOK3501400,euSurfaceWaterBodyCode,GRABENSEE,lakeWaterBody,Natural,Not a reservoir,B2,AT1001,euSubUnitCode,DANUBE,AT1000,euRBDCode,DANUBE,F,47.98772,13.09206
AT,ATSE60101000,euMonitoringSiteCode,ATSE60101000,euMonitoringSiteCode,ALTAUSSEER SEE MESSSTELLE,ATOK4501100,euSurfaceWaterBodyCode,ALTAUSSEER SEE,lakeWaterBody,Natural,Not a reservoir,E1,AT1001,euSubUnitCode,DANUBE,AT1000,euRBDCode,DANUBE,F,47.63935,13.78066
AT,ATSE60201000,euMonitoringSiteCode,ATSE60201000,euMonitoringSiteCode,GRUNDLSEE MESSSTELLE,ATOK4501000,euSurfaceWaterBodyCode,GRUNDLSEE,lakeWaterBody,Natural,Not a reservoir,E1,AT1001,euSubUnitCode,DANUBE,AT1000,euRBDCode,DANUBE,F,47.63264,13.8681
AT,ATSE60301000,euMonitoringSiteCode,ATSE60301000,euMonitoringSiteCode,ERLAUFSEE MESSSTELLE,ATOK4501800,euSurfaceWaterBodyCode,ERLAUFSEE,lakeWaterBody,Natural,Not a reservoir,D2,AT1001,euSubUnitCode,DANUBE,AT1000,euRBDCode,DANUBE,F,47.79384,15.26698
AT,ATSE70101000,euMonitoringSiteCode,ATSE70101000,euMonitoringSiteCode,ACHENSEE MESSSTELLE,ATOK3500300,euSurfaceWaterBodyCode,ACHENSEE,lakeWaterBody,HMWB,Reservoir in former lake,E1,AT1001,euSubUnitCode,DANUBE,AT1000,euRBDCode,DANUBE,F,47.46363,11.70759
AT,ATSE70201000,euMonitoringSiteCode,ATSE70201000,euMonitoringSiteCode,PLANSEE MESSSTELLE,ATOK3500200,euSurfaceWaterBodyCode,PLANSEE,lakeWaterBody,HMWB,Reservoir in former lake,E1,AT1001,euSubUnitCode,DANUBE,AT1000,euRBDCode,DANUBE,F,47.48251,10.8396
AT,ATSE70301000,euMonitoringSiteCode,ATSE70301000,euMonitoringSiteCode,HEITERWANGER SEE MESSSTELLE,ATOK3500000,euSurfaceWaterBodyCode,HEITERWANGER SEE,lakeWaterBody,HMWB,Reservoir in former lake,E1,AT1001,euSubUnitCode,DANUBE,AT1000,euRBDCode,DANUBE,F,47.45661,10.77851
AT,ATSE80101000,euMonitoringSiteCode,ATSE80101000,euMonitoringSiteCode,"BODENSEE, BREGENZER BUCHT",ATOK1500100,euSurfaceWaterBodyCode,BODENSEE,lakeWaterBody,Natural,Not a reservoir,B1,AT2100,euSubUnitCode,RHINE,AT2000,euRBDCode,RHINE,F,47.51889,9.73855
AT,ATSE90101000,euMonitoringSiteCode,ATSE90101000,euMonitoringSiteCode,UNTERE ALTE DONAU,ATOK4501900,euSurfaceWaterBodyCode,ALTE DONAU,lakeWaterBody,Natural,Not a reservoir,A3,AT1001,euSubUnitCode,DANUBE,AT1000,euRBDCode,DANUBE,F,48.21679,16.4342
AT,ATSE90102000,euMonitoringSiteCode,ATSE90102000,euMonitoringSiteCode,OBERE ALTE DONAU,ATOK4501900,euSurfaceWaterBodyCode,ALTE DONAU,lakeWaterBody,Natural,Not a reservoir,A3,AT1001,euSubUnitCode,DANUBE,AT1000,euRBDCode,DANUBE,F,48.24891,16.40591
BE,BERW_15050,eionetMonitoringSiteCode,BERW_15050,eionetMonitoringSiteCode,CINEY,BERW06_MM28R,euSurfaceWaterBodyCode,BOCQ I,riverWaterBody,Natural,Missing,RIV_13,BEMEUSE_RW,euSubUnitCode,INTERNATIONAL RIVER BASIN DISTRICT OF THE MEUSE,BEMEUSE_RW,euRBDCode,INTERNATIONAL RIVER BASIN DISTRICT OF THE MEUSE,F,50.30526,5.08626
BE,BERW_15053,eionetMonitoringSiteCode,BERW_15053,eionetMonitoringSiteCode,YVOIR,BERW06_MM30R,euSurfaceWaterBodyCode,BOCQ II,riverWaterBody,Natural,Missing,RIV_15,BEMEUSE_RW,euSubUnitCode,INTERNATIONAL RIVER BASIN DISTRICT OF THE MEUSE,BEMEUSE_RW,euRBDCode,INTERNATIONAL RIVER BASIN DISTRICT OF THE MEUSE,F,50.32134,4.94365
BE,BERW_50054,eionetMonitoringSiteCode,BERW_50054,eionetMonitoringSiteCode,CINEY,BERW06_MM28R,euSurfaceWaterBodyCode,BOCQ I,riverWaterBody,Natural,Missing,RIV_13,BEMEUSE_RW,euSubUnitCode,INTERNATIONAL RIVER BASIN DISTRICT OF THE MEUSE,BEMEUSE_RW,euRBDCode,INTERNATIONAL RIVER BASIN DISTRICT OF THE MEUSE,F,50.32855,5.06611
BE,BERW_50056,eionetMonitoringSiteCode,BERW_50056,eionetMonitoringSiteCode,GOUVY,BERW06_OU07R,euSurfaceWaterBodyCode,OURTHE ORIENTALE I,riverWaterBody,Natural,Missing,RIV_05,BEMEUSE_RW,euSubUnitCode,INTERNATIONAL RIVER BASIN DISTRICT OF THE MEUSE,BEMEUSE_RW,euRBDCode,INTERNATIONAL RIVER BASIN DISTRICT OF THE MEUSE,F,50.15096,5.86817
BE,BERW_50139,eionetMonitoringSiteCode,BERW_50139,eionetMonitoringSiteCode,NOTAPPLICABLE,BERW06_LE30R,euSurfaceWaterBodyCode,LHOMME I,riverWaterBody,Natural,Missing,RIV_05,BEMEUSE_RW,euSubUnitCode,INTERNATIONAL RIVER BASIN DISTRICT OF THE MEUSE,BEMEUSE_RW,euRBDCode,INTERNATIONAL RIVER BASIN DISTRICT OF THE MEUSE,F,50.02283,5.27959
BE,BEBR_IBGE_ZEN025,euMonitoringSiteCode,BEBR_IBGE_ZEN025,euMonitoringSiteCode,NOTAPPLICABLE,BEBR_SENNE_ZENNE,euSurfaceWaterBodyCode,SENNE-ZENNE,riverWaterBody,HMWB,Not a reservoir,Grote rivier,BEESCAUT_SCHELDE_BR,euSubUnitCode,INTERNATIONAL RIVER BASIN DISTRICT OF THE SCHELDT,BEESCAUT_SCHELDE_BR,euRBDCode,INTERNATIONAL RIVER BASIN DISTRICT OF THE SCHELDT,F,50.81592,4.30341
BE,BERW_00360,euMonitoringSiteCode,BERW_00360,euMonitoringSiteCode,NOTAPPLICABLE,BERW06_EL18R,euSurfaceWaterBodyCode,ESCAUT I,riverWaterBody,HMWB,Not a reservoir,RIV_23,BEESCAUT_RW,euSubUnitCode,INTERNATIONAL RIVER BASIN DISTRICT OF THE SCHELDT,BEESCAUT_RW,euRBDCode,INTERNATIONAL RIVER BASIN DISTRICT OF THE SCHELDT,F,50.51583,3.42299
BE,BERW_00395,euMonitoringSiteCode,BERW_00395,euMonitoringSiteCode,NOTAPPLICABLE,BERW06_EL18R,euSurfaceWaterBodyCode,ESCAUT I,riverWaterBody,HMWB,Not a reservoir,RIV_23,BEESCAUT_RW,euSubUnitCode,INTERNATIONAL RIVER BASIN DISTRICT OF THE SCHELDT,BEESCAUT_RW,euRBDCode,INTERNATIONAL RIVER BASIN DISTRICT OF THE SCHELDT,F,50.70087,3.35222
BE,BERW_00400,euMonitoringSiteCode,BERW_00400,euMonitoringSiteCode,NOTAPPLICABLE,BERW06_EL19R,euSurfaceWaterBodyCode,ESCAUT II,riverWaterBody,HMWB,Not a reservoir,RIV_23,BEESCAUT_RW,euSubUnitCode,INTERNATIONAL RIVER BASIN DISTRICT OF THE SCHELDT,BEESCAUT_RW,euRBDCode,INTERNATIONAL RIVER BASIN DISTRICT OF THE SCHELDT,F,50.72864,3.38828
BE,BERW_00551,euMonitoringSiteCode,BERW_00551,euMonitoringSiteCode,NOTAPPLICABLE,BERW06_EL01C,euSurfaceWaterBodyCode,CANAL DE L'ESPIERRES,riverWaterBody,AWB,Missing,RIV_25,BEESCAUT_RW,euSubUnitCode,INTERNATIONAL RIVER BASIN DISTRICT OF THE SCHELDT,BEESCAUT_RW,euRBDCode,INTERNATIONAL RIVER BASIN DISTRICT OF THE SCHELDT,F,50.70259,3.30075
BE,BERW_00580,euMonitoringSiteCode,BERW_00580,euMonitoringSiteCode,NOTAPPLICABLE,BERW06_EL14R,euSurfaceWaterBodyCode,ESPIERRES,riverWaterBody,HMWB,Not a reservoir,RIV_20,BEESCAUT_RW,euSubUnitCode,INTERNATIONAL RIVER BASIN DISTRICT OF THE SCHELDT,BEESCAUT_RW,euRBDCode,INTERNATIONAL RIVER BASIN DISTRICT OF THE SCHELDT,F,50.69742,3.28206
BE,BERW_00585,euMonitoringSiteCode,BERW_00585,euMonitoringSiteCode,NOTAPPLICABLE,BERW06_EL15R,euSurfaceWaterBodyCode,GRANDE ESPIERRES,riverWaterBody,HMWB,Not a reservoir,RIV_20,BEESCAUT_RW,euSubUnitCode,INTERNATIONAL RIVER BASIN DISTRICT OF THE SCHELDT,BEESCAUT_RW,euRBDCode,INTERNATIONAL RIVER BASIN DISTRICT OF THE SCHELDT,F,50.72817,3.34636
BE,BERW_00630,euMonitoringSiteCode,BERW_00630,euMonitoringSiteCode,NOTAPPLICABLE,BERW06_EL20R,euSurfaceWaterBodyCode,RHOSNES II,riverWaterBody,HMWB,Not a reservoir,RIV_22,BEESCAUT_RW,euSubUnitCode,INTERNATIONAL RIVER BASIN DISTRICT OF THE SCHELDT,BEESCAUT_RW,euRBDCode,INTERNATIONAL RIVER BASIN DISTRICT OF THE SCHELDT,F,50.75714,3.46443
BE,BERW_00670,euMonitoringSiteCode,BERW_00670,euMonitoringSiteCode,NOTAPPLICABLE,BERW06_EL01R,euSurfaceWaterBodyCode,LYS,riverWaterBody,HMWB,Not a reservoir,RIV_23,BEESCAUT_RW,euSubUnitCode,INTERNATIONAL RIVER BASIN DISTRICT OF THE SCHELDT,BEESCAUT_RW,euRBDCode,INTERNATIONAL RIVER BASIN DISTRICT OF THE SCHELDT,F,50.75161,2.95061
BE,BERW_01259,euMonitoringSiteCode,BERW_01259,euMonitoringSiteCode,NOTAPPLICABLE,BERW06_DE02R,euSurfaceWaterBodyCode,DENDRE ORIENTALE,riverWaterBody,Natural,Missing,RIV_20,BEESCAUT_RW,euSubUnitCode,INTERNATIONAL RIVER BASIN DISTRICT OF THE SCHELDT,BEESCAUT_RW,euRBDCode,INTERNATIONAL RIVER BASIN DISTRICT OF THE SCHELDT,F,50.61004,3.81287
BE,BERW_01270,euMonitoringSiteCode,BERW_01270,euMonitoringSiteCode,NOTAPPLICABLE,BERW06_DE03R,euSurfaceWaterBodyCode,DENDRE OCCIDENTALE ET ORIENTALE,riverWaterBody,HMWB,Not a reservoir,RIV_22,BEESCAUT_RW,euSubUnitCode,INTERNATIONAL RIVER BASIN DISTRICT OF THE SCHELDT,BEESCAUT_RW,euRBDCode,INTERNATIONAL RIVER BASIN DISTRICT OF THE SCHELDT,F,50.63635,3.77476
BE,BERW_01281,euMonitoringSiteCode,BERW_01281,euMonitoringSiteCode,NOTAPPLICABLE,BERW06_DE09R,euSurfaceWaterBodyCode,DENDRE CANALISEE,riverWaterBody,HMWB,Not a reservoir,RIV_21,BEESCAUT_RW,euSubUnitCode,INTERNATIONAL RIVER BASIN DISTRICT OF THE SCHELDT,BEESCAUT_RW,euRBDCode,INTERNATIONAL RIVER BASIN DISTRICT OF THE SCHELDT,F,50.7382,3.86296
BE,BERW_01395,euMonitoringSiteCode,BERW_01395,euMonitoringSiteCode,NOTAPPLICABLE,BERW06_SN10R,euSurfaceWaterBodyCode,SENNE II,riverWaterBody,Natural,Missing,RIV_22,BEESCAUT_RW,euSubUnitCode,INTERNATIONAL RIVER BASIN DISTRICT OF THE SCHELDT,BEESCAUT_RW,euRBDCode,INTERNATIONAL RIVER BASIN DISTRICT OF THE SCHELDT,F,50.66987,4.15717
BE,BERW_01400,euMonitoringSiteCode,BERW_01400,euMonitoringSiteCode,NOTAPPLICABLE,BERW06_SN01R,euSurfaceWaterBodyCode,SENNE I,riverWaterBody,Natural,Missing,RIV_20,BEESCAUT_RW,euSubUnitCode,INTERNATIONAL RIVER BASIN DISTRICT OF THE SCHELDT,BEESCAUT_RW,euRBDCode,INTERNATIONAL RIVER BASIN DISTRICT OF THE SCHELDT,F,50.64203,4.07115
BE,BERW_01430,euMonitoringSiteCode,BERW_01430,euMonitoringSiteCode,NOTAPPLICABLE,BERW06_SN08R,euSurfaceWaterBodyCode,SENNETTE I,riverWaterBody,Natural,Missing,RIV_22,BEESCAUT_RW,euSubUnitCode,INTERNATIONAL RIVER BASIN DISTRICT OF THE SCHELDT,BEESCAUT_RW,euRBDCode,INTERNATIONAL RIVER BASIN DISTRICT OF THE SCHELDT,F,50.59307,4.20068
BE,BERW_01440,euMonitoringSiteCode,BERW_01440,euMonitoringSiteCode,NOTAPPLICABLE,BERW06_SN06R,euSurfaceWaterBodyCode,HAIN,riverWaterBody,Natural,Missing,RIV_20,BEESCAUT_RW,euSubUnitCode,INTERNATIONAL RIVER BASIN DISTRICT OF THE SCHELDT,BEESCAUT_RW,euRBDCode,INTERNATIONAL RIVER BASIN DISTRICT OF THE SCHELDT,F,50.6817,4.22872
BE,BERW_01530,euMonitoringSiteCode,BERW_01530,euMonitoringSiteCode,NOTAPPLICABLE,BERW06_SA01C,euSurfaceWaterBodyCode,CANAL CHARLEROI-BRUXELLES I,riverWaterBody,AWB,Missing,RIV_25,BEMEUSE_RW,euSubUnitCode,INTERNATIONAL RIVER BASIN DISTRICT OF THE MEUSE,BEMEUSE_RW,euRBDCode,INTERNATIONAL RIVER BASIN DISTRICT OF THE MEUSE,F,50.46167,4.40422
BE,BERW_01532,euMonitoringSiteCode,BERW_01532,euMonitoringSiteCode,NOTAPPLICABLE,BERW06_SA13R,euSurfaceWaterBodyCode,PIETON,riverWaterBody,HMWB,Not a reservoir,RIV_20,BEMEUSE_RW,euSubUnitCode,INTERNATIONAL RIVER BASIN DISTRICT OF THE MEUSE,BEMEUSE_RW,euRBDCode,INTERNATIONAL RIVER BASIN DISTRICT OF THE MEUSE,F,50.49149,4.39193
BE,BERW_01541,euMonitoringSiteCode,BERW_01541,euMonitoringSiteCode,NOTAPPLICABLE,BERW06_SA13R,euSurfaceWaterBodyCode,PIETON,riverWaterBody,HMWB,Not a reservoir,RIV_20,BEMEUSE_RW,euSubUnitCode,INTERNATIONAL RIVER BASIN DISTRICT OF THE MEUSE,BEMEUSE_RW,euRBDCode,INTERNATIONAL RIVER BASIN DISTRICT OF THE MEUSE,F,50.48921,4.30622
BE,BERW_01552,euMonitoringSiteCode,BERW_01552,euMonitoringSiteCode,NOTAPPLICABLE,BERW06_SN01C,euSurfaceWaterBodyCode,CANAL CHARLEROI-BRUXELLES II,riverWaterBody,AWB,Missing,RIV_25,BEESCAUT_RW,euSubUnitCode,INTERNATIONAL RIVER BASIN DISTRICT OF THE SCHELDT,BEESCAUT_RW,euRBDCode,INTERNATIONAL RIVER BASIN DISTRICT OF THE SCHELDT,F,50.55594,4.22337
BE,BERW_01554,euMonitoringSiteCode,BERW_01554,euMonitoringSiteCode,NOTAPPLICABLE,BERW06_SN01C,euSurfaceWaterBodyCode,CANAL CHARLEROI-BRUXELLES II,riverWaterBody,AWB,Missing,RIV_25,BEESCAUT_RW,euSubUnitCode,INTERNATIONAL RIVER BASIN DISTRICT OF THE SCHELDT,BEESCAUT_RW,euRBDCode,INTERNATIONAL RIVER BASIN DISTRICT OF THE SCHELDT,F,50.68815,4.2201
BE,BERW_01560,euMonitoringSiteCode,BERW_01560,euMonitoringSiteCode,NOTAPPLICABLE,BERW06_HN01R,euSurfaceWaterBodyCode,HAINE I,riverWaterBody,Natural,Missing,RIV_20,BEESCAUT_RW,euSubUnitCode,INTERNATIONAL RIVER BASIN DISTRICT OF THE SCHELDT,BEESCAUT_RW,euRBDCode,INTERNATIONAL RIVER BASIN DISTRICT OF THE SCHELDT,F,50.44306,4.13745
BE,BERW_01561,euMonitoringSiteCode,BERW_01561,euMonitoringSiteCode,NOTAPPLICABLE,BERW06_SN12R,euSurfaceWaterBodyCode,SAMME,riverWaterBody,HMWB,Not a reservoir,RIV_20,BEESCAUT_RW,euSubUnitCode,INTERNATIONAL RIVER BASIN DISTRICT OF THE SCHELDT,BEESCAUT_RW,euRBDCode,INTERNATIONAL RIVER BASIN DISTRICT OF THE SCHELDT,F,50.60585,4.2254
BE,BERW_01565,euMonitoringSiteCode,BERW_01565,euMonitoringSiteCode,NOTAPPLICABLE,BERW06_SN11R,euSurfaceWaterBodyCode,THISNES,riverWaterBody,Natural,Missing,RIV_20,BEESCAUT_RW,euSubUnitCode,INTERNATIONAL RIVER BASIN DISTRICT OF THE SCHELDT,BEESCAUT_RW,euRBDCode,INTERNATIONAL RIVER BASIN DISTRICT OF THE SCHELDT,F,50.59336,4.25576
BE,BERW_01670,euMonitoringSiteCode,BERW_01670,euMonitoringSiteCode,NOTAPPLICABLE,BERW06_DG02R,euSurfaceWaterBodyCode,DYLE II,riverWaterBody,Natural,Missing,RIV_22,BEESCAUT_RW,euSubUnitCode,INTERNATIONAL RIVER BASIN DISTRICT OF THE SCHELDT,BEESCAUT_RW,euRBDCode,INTERNATIONAL RIVER BASIN DISTRICT OF THE SCHELDT,F,50.77628,4.6372
BE,BERW_01780,euMonitoringSiteCode,BERW_01780,euMonitoringSiteCode,NOTAPPLICABLE,BERW06_DG05R,euSurfaceWaterBodyCode,TRAIN,riverWaterBody,Natural,Missing,RIV_20,BEESCAUT_RW,euSubUnitCode,INTERNATIONAL RIVER BASIN DISTRICT OF THE SCHELDT,BEESCAUT_RW,euRBDCode,INTERNATIONAL RIVER BASIN DISTRICT OF THE SCHELDT,F,50.75046,4.67166
BE,BERW_02049,euMonitoringSiteCode,BERW_02049,euMonitoringSiteCode,NOTAPPLICABLE,BERW06_DG07R,euSurfaceWaterBodyCode,GRANDE GETTE I,riverWaterBody,Natural,Missing,RIV_20,BEESCAUT_RW,euSubUnitCode,INTERNATIONAL RIVER BASIN DISTRICT OF THE SCHELDT,BEESCAUT_RW,euRBDCode,INTERNATIONAL RIVER BASIN DISTRICT OF THE SCHELDT,F,50.70246,4.83784
BE,BERW_02230,euMonitoringSiteCode,BERW_02230,euMonitoringSiteCode,NOTAPPLICABLE,BERW06_HN01R,euSurfaceWaterBodyCode,HAINE I,riverWaterBody,Natural,Missing,RIV_20,BEESCAUT_RW,euSubUnitCode,INTERNATIONAL RIVER BASIN DISTRICT OF THE SCHELDT,BEESCAUT_RW,euRBDCode,INTERNATIONAL RIVER BASIN DISTRICT OF THE SCHELDT,F,50.45537,4.16002
BE,BERW_02280,euMonitoringSiteCode,BERW_02280,euMonitoringSiteCode,NOTAPPLICABLE,BERW06_HN05C,euSurfaceWaterBodyCode,HAINE CANALISEE,riverWaterBody,AWB,Missing,RIV_25,BEESCAUT_RW,euSubUnitCode,INTERNATIONAL RIVER BASIN DISTRICT OF THE SCHELDT,BEESCAUT_RW,euRBDCode,INTERNATIONAL RIVER BASIN DISTRICT OF THE SCHELDT,F,50.44916,3.68134
BE,BERW_02295,euMonitoringSiteCode,BERW_02295,euMonitoringSiteCode,NOTAPPLICABLE,BERW06_HN15R,euSurfaceWaterBodyCode,GRANDE HONNELLE,riverWaterBody,Natural,Missing,RIV_22,BEESCAUT_RW,euSubUnitCode,INTERNATIONAL RIVER BASIN DISTRICT OF THE SCHELDT,BEESCAUT_RW,euRBDCode,INTERNATIONAL RIVER BASIN DISTRICT OF THE SCHELDT,F,50.38483,3.6911
BE,BERW_02328,euMonitoringSiteCode,BERW_02328,euMonitoringSiteCode,NOTAPPLICABLE,BERW06_HN17R,euSurfaceWaterBodyCode,TROUILLE II,riverWaterBody,HMWB,Not a reservoir,RIV_20,BEESCAUT_RW,euSubUnitCode,INTERNATIONAL RIVER BASIN DISTRICT OF THE SCHELDT,BEESCAUT_RW,euRBDCode,INTERNATIONAL RIVER BASIN DISTRICT OF THE SCHELDT,F,50.45098,3.91512
BE,BERW_02329,euMonitoringSiteCode,BERW_02329,euMonitoringSiteCode,NOTAPPLICABLE,BERW06_HN06R,euSurfaceWaterBodyCode,TROUILLE I,riverWaterBody,Natural,Missing,RIV_20,BEESCAUT_RW,euSubUnitCode,INTERNATIONAL RIVER BASIN DISTRICT OF THE SCHELDT,BEESCAUT_RW,euRBDCode,INTERNATIONAL RIVER BASIN DISTRICT OF THE SCHELDT,F,50.44076,3.96522
BE,BERW_02341,euMonitoringSiteCode,BERW_02341,euMonitoringSiteCode,NOTAPPLICABLE,BERW06_HN02C,euSurfaceWaterBodyCode,CANAL POMMEROEUL-CONDE,riverWaterBody,AWB,Missing,RIV_25,BEESCAUT_RW,euSubUnitCode,INTERNATIONAL RIVER BASIN DISTRICT OF THE SCHELDT,BEESCAUT_RW,euRBDCode,INTERNATIONAL RIVER BASIN DISTRICT OF THE SCHELDT,F,50.44993,3.68226
BE,BERW_02361,euMonitoringSiteCode,BERW_02361,euMonitoringSiteCode,NOTAPPLICABLE,BERW06_HN13R,euSurfaceWaterBodyCode,GRAND COURANT,riverWaterBody,HMWB,Not a reservoir,RIV_20,BEESCAUT_RW,euSubUnitCode,INTERNATIONAL RIVER BASIN DISTRICT OF THE SCHELDT,BEESCAUT_RW,euRBDCode,INTERNATIONAL RIVER BASIN DISTRICT OF THE SCHELDT,F,50.46641,3.64925
BE,BERW_02362,euMonitoringSiteCode,BERW_02362,euMonitoringSiteCode,NOTAPPLICABLE,BERW06_EL02C,euSurfaceWaterBodyCode,CANAL NIMY-BLATON-PERONNES,riverWaterBody,AWB,Missing,RIV_25,BEESCAUT_RW,euSubUnitCode,INTERNATIONAL RIVER BASIN DISTRICT OF THE SCHELDT,BEESCAUT_RW,euRBDCode,INTERNATIONAL RIVER BASIN DISTRICT OF THE SCHELDT,F,50.52744,3.51466
BE,BERW_02363,euMonitoringSiteCode,BERW_02363,euMonitoringSiteCode,NOTAPPLICABLE,BERW06_HN01C,euSurfaceWaterBodyCode,CANAL NIMY-BLATON-PERONNES,riverWaterBody,AWB,Missing,RIV_25,BEESCAUT_RW,euSubUnitCode,INTERNATIONAL RIVER BASIN DISTRICT OF THE SCHELDT,BEESCAUT_RW,euRBDCode,INTERNATIONAL RIVER BASIN DISTRICT OF THE SCHELDT,F,50.48807,3.6831
BE,BERW_02390,euMonitoringSiteCode,BERW_02390,euMonitoringSiteCode,NOTAPPLICABLE,BERW06_HN01C,euSurfaceWaterBodyCode,CANAL NIMY-BLATON-PERONNES,riverWaterBody,AWB,Missing,RIV_25,BEESCAUT_RW,euSubUnitCode,INTERNATIONAL RIVER BASIN DISTRICT OF THE SCHELDT,BEESCAUT_RW,euRBDCode,INTERNATIONAL RIVER BASIN DISTRICT OF THE SCHELDT,F,50.47881,3.95021
BE,BERW_02391,euMonitoringSiteCode,BERW_02391,euMonitoringSiteCode,NOTAPPLICABLE,BERW06_HN03C,euSurfaceWaterBodyCode,CANAL HISTORIQUE DU CENTRE,riverWaterBody,AWB,Missing,RIV_25,BEESCAUT_RW,euSubUnitCode,INTERNATIONAL RIVER BASIN DISTRICT OF THE SCHELDT,BEESCAUT_RW,euRBDCode,INTERNATIONAL RIVER BASIN DISTRICT OF THE SCHELDT,F,50.48118,4.16888
BE,BERW_02420,euMonitoringSiteCode,BERW_02420,euMonitoringSiteCode,NOTAPPLICABLE,BERW06_DE01C,euSurfaceWaterBodyCode,CANAL BLATON-ATH,riverWaterBody,AWB,Missing,RIV_25,BEESCAUT_RW,euSubUnitCode,INTERNATIONAL RIVER BASIN DISTRICT OF THE SCHELDT,BEESCAUT_RW,euRBDCode,INTERNATIONAL RIVER BASIN DISTRICT OF THE SCHELDT,F,50.61488,3.79282
BE,BERW_02930,euMonitoringSiteCode,BERW_02930,euMonitoringSiteCode,NOTAPPLICABLE,BERW06_MV01C,euSurfaceWaterBodyCode,CANAL ALBERT,riverWaterBody,AWB,Missing,RIV_25,BEMEUSE_RW,euSubUnitCode,INTERNATIONAL RIVER BASIN DISTRICT OF THE MEUSE,BEMEUSE_RW,euRBDCode,INTERNATIONAL RIVER BASIN DISTRICT OF THE MEUSE,F,50.78399,5.68881
BE,BERW_03190,euMonitoringSiteCode,BERW_03190,euMonitoringSiteCode,NOTAPPLICABLE,BERW06_MM38R,euSurfaceWaterBodyCode,MEUSE I,riverWaterBody,HMWB,Not a reservoir,RIV_19,BEMEUSE_RW,euSubUnitCode,INTERNATIONAL RIVER BASIN DISTRICT OF THE MEUSE,BEMEUSE_RW,euRBDCode,INTERNATIONAL RIVER BASIN DISTRICT OF THE MEUSE,F,50.21574,4.82692
BE,BERW_03260,euMonitoringSiteCode,BERW_03260,euMonitoringSiteCode,NOTAPPLICABLE,BERW06_MV35R,euSurfaceWaterBodyCode,MEUSE II,riverWaterBody,HMWB,Not a reservoir,RIV_19,BEMEUSE_RW,euSubUnitCode,INTERNATIONAL RIVER BASIN DISTRICT OF THE MEUSE,BEMEUSE_RW,euRBDCode,INTERNATIONAL RIVER BASIN DISTRICT OF THE MEUSE,F,50.49391,5.09585
BE,BERW_03315,euMonitoringSiteCode,BERW_03315,euMonitoringSiteCode,NOTAPPLICABLE,BERW06_MV35R,euSurfaceWaterBodyCode,MEUSE II,riverWaterBody,HMWB,Not a reservoir,RIV_19,BEMEUSE_RW,euSubUnitCode,INTERNATIONAL RIVER BASIN DISTRICT OF THE MEUSE,BEMEUSE_RW,euRBDCode,INTERNATIONAL RIVER BASIN DISTRICT OF THE MEUSE,F,50.73729,5.69026
BE,BERW_03370,euMonitoringSiteCode,BERW_03370,euMonitoringSiteCode,NOTAPPLICABLE,BERW06_SC06R,euSurfaceWaterBodyCode,TON II,riverWaterBody,Natural,Missing,RIV_03,BEMEUSE_RW,euSubUnitCode,INTERNATIONAL RIVER BASIN DISTRICT OF THE MEUSE,BEMEUSE_RW,euRBDCode,INTERNATIONAL RIVER BASIN DISTRICT OF THE MEUSE,F,49.50648,5.46508
BE,BERW_03381,euMonitoringSiteCode,BERW_03381,euMonitoringSiteCode,NOTAPPLICABLE,BERW06_SC04R,euSurfaceWaterBodyCode,MESSANCY,riverWaterBody,Natural,Missing,RIV_01,BEMEUSE_RW,euSubUnitCode,INTERNATIONAL RIVER BASIN DISTRICT OF THE MEUSE,BEMEUSE_RW,euRBDCode,INTERNATIONAL RIVER BASIN DISTRICT OF THE MEUSE,F,49.5643,5.8303
BE,BERW_03405,euMonitoringSiteCode,BERW_03405,euMonitoringSiteCode,NOTAPPLICABLE,BERW06_SC03R,euSurfaceWaterBodyCode,CHAVRATTE,riverWaterBody,Natural,Missing,RIV_02,BEMEUSE_RW,euSubUnitCode,INTERNATIONAL RIVER BASIN DISTRICT OF THE MEUSE,BEMEUSE_RW,euRBDCode,INTERNATIONAL RIVER BASIN DISTRICT OF THE MEUSE,F,49.5577,5.49945
BE,BERW_03410,euMonitoringSiteCode,BERW_03410,euMonitoringSiteCode,NOTAPPLICABLE,BERW06_SC06R,euSurfaceWaterBodyCode,TON II,riverWaterBody,Natural,Missing,RIV_03,BEMEUSE_RW,euSubUnitCode,INTERNATIONAL RIVER BASIN DISTRICT OF THE MEUSE,BEMEUSE_RW,euRBDCode,INTERNATIONAL RIVER BASIN DISTRICT OF THE MEUSE,F,49.5266,5.47901
BE,BERW_03450,euMonitoringSiteCode,BERW_03450,euMonitoringSiteCode,NOTAPPLICABLE,BERW06_MM09R,euSurfaceWaterBodyCode,VIROIN,riverWaterBody,Natural,Missing,RIV_15,BEMEUSE_RW,euSubUnitCode,INTERNATIONAL RIVER BASIN DISTRICT OF THE MEUSE,BEMEUSE_RW,euRBDCode,INTERNATIONAL RIVER BASIN DISTRICT OF THE MEUSE,F,50.09351,4.69104
BE,BERW_03480,euMonitoringSiteCode,BERW_03480,euMonitoringSiteCode,NOTAPPLICABLE,BERW06_MM05R,euSurfaceWaterBodyCode,EAU BLANCHE I,riverWaterBody,Natural,Missing,RIV_11,BEMEUSE_RW,euSubUnitCode,INTERNATIONAL RIVER BASIN DISTRICT OF THE MEUSE,BEMEUSE_RW,euRBDCode,INTERNATIONAL RIVER BASIN DISTRICT OF THE MEUSE,F,50.0893,4.52151
BE,BERW_03510,euMonitoringSiteCode,BERW_03510,euMonitoringSiteCode,NOTAPPLICABLE,BERW06_MM05R,euSurfaceWaterBodyCode,EAU BLANCHE I,riverWaterBody,Natural,Missing,RIV_11,BEMEUSE_RW,euSubUnitCode,INTERNATIONAL RIVER BASIN DISTRICT OF THE MEUSE,BEMEUSE_RW,euRBDCode,INTERNATIONAL RIVER BASIN DISTRICT OF THE MEUSE,F,50.07792,4.55135
BE,BERW_03522,euMonitoringSiteCode,BERW_03522,euMonitoringSiteCode,NOTAPPLICABLE,BERW06_SC08R,euSurfaceWaterBodyCode,SEMOIS I,riverWaterBody,Natural,Missing,RIV_01,BEMEUSE_RW,euSubUnitCode,INTERNATIONAL RIVER BASIN DISTRICT OF THE MEUSE,BEMEUSE_RW,euRBDCode,INTERNATIONAL RIVER BASIN DISTRICT OF THE MEUSE,F,49.66934,5.66972
BE,BERW_03550,euMonitoringSiteCode,BERW_03550,euMonitoringSiteCode,NOTAPPLICABLE,BERW06_SC23R,euSurfaceWaterBodyCode,SEMOIS II,riverWaterBody,Natural,Missing,RIV_03,BEMEUSE_RW,euSubUnitCode,INTERNATIONAL RIVER BASIN DISTRICT OF THE MEUSE,BEMEUSE_RW,euRBDCode,INTERNATIONAL RIVER BASIN DISTRICT OF THE MEUSE,F,49.68446,5.51323
BE,BERW_03570,euMonitoringSiteCode,BERW_03570,euMonitoringSiteCode,NOTAPPLICABLE,BERW06_SC28R,euSurfaceWaterBodyCode,SEMOIS III,riverWaterBody,Natural,Missing,RIV_06,BEMEUSE_RW,euSubUnitCode,INTERNATIONAL RIVER BASIN DISTRICT OF THE MEUSE,BEMEUSE_RW,euRBDCode,INTERNATIONAL RIVER BASIN DISTRICT OF THE MEUSE,F,49.71037,5.32545
BE,BERW_03621,euMonitoringSiteCode,BERW_03621,euMonitoringSiteCode,NOTAPPLICABLE,BERW06_SC37R,euSurfaceWaterBodyCode,SEMOIS IV,riverWaterBody,Natural,Missing,RIV_08,BEMEUSE_RW,euSubUnitCode,INTERNATIONAL RIVER BASIN DISTRICT OF THE MEUSE,BEMEUSE_RW,euRBDCode,INTERNATIONAL RIVER BASIN DISTRICT OF THE MEUSE,F,49.86433,4.88413
BE,BERW_03651,euMonitoringSiteCode,BERW_03651,euMonitoringSiteCode,NOTAPPLICABLE,BERW06_SC22R,euSurfaceWaterBodyCode,VIERRE III,riverWaterBody,Natural,Missing,RIV_06,BEMEUSE_RW,euSubUnitCode,INTERNATIONAL RIVER BASIN DISTRICT OF THE MEUSE,BEMEUSE_RW,euRBDCode,INTERNATIONAL RIVER BASIN DISTRICT OF THE MEUSE,F,49.79002,5.38673
BE,BERW_03700,euMonitoringSiteCode,BERW_03700,euMonitoringSiteCode,NOTAPPLICABLE,BERW06_MM13R,euSurfaceWaterBodyCode,HOUILLE I,riverWaterBody,Natural,Missing,RIV_05,BEMEUSE_RW,euSubUnitCode,INTERNATIONAL RIVER BASIN DISTRICT OF THE MEUSE,BEMEUSE_RW,euRBDCode,INTERNATIONAL RIVER BASIN DISTRICT OF THE MEUSE,F,50.04293,4.84424
BE,BERW_03720,euMonitoringSiteCode,BERW_03720,euMonitoringSiteCode,NOTAPPLICABLE,BERW06_MM21R,euSurfaceWaterBodyCode,HERMETON III,riverWaterBody,Natural,Missing,RIV_15,BEMEUSE_RW,euSubUnitCode,INTERNATIONAL RIVER BASIN DISTRICT OF THE MEUSE,BEMEUSE_RW,euRBDCode,INTERNATIONAL RIVER BASIN DISTRICT OF THE MEUSE,F,50.19896,4.8158
BE,BERW_03762,euMonitoringSiteCode,BERW_03762,euMonitoringSiteCode,NOTAPPLICABLE,BERW06_LE10R,euSurfaceWaterBodyCode,WIMBE II,riverWaterBody,Natural,Missing,RIV_09,BEMEUSE_RW,euSubUnitCode,INTERNATIONAL RIVER BASIN DISTRICT OF THE MEUSE,BEMEUSE_RW,euRBDCode,INTERNATIONAL RIVER BASIN DISTRICT OF THE MEUSE,F,50.15112,5.12037
BE,BERW_03765,euMonitoringSiteCode,BERW_03765,euMonitoringSiteCode,NOTAPPLICABLE,BERW06_LE07R,euSurfaceWaterBodyCode,RY D'AVE,riverWaterBody,Natural,Missing,RIV_10,BEMEUSE_RW,euSubUnitCode,INTERNATIONAL RIVER BASIN DISTRICT OF THE MEUSE,BEMEUSE_RW,euRBDCode,INTERNATIONAL RIVER BASIN DISTRICT OF THE MEUSE,F,50.12449,5.17701
BE,BERW_03768,euMonitoringSiteCode,BERW_03768,euMonitoringSiteCode,NOTAPPLICABLE,BERW06_LE04R,euSurfaceWaterBodyCode,RUISSEAU DE GEMBES,riverWaterBody,Natural,Missing,RIV_05,BEMEUSE_RW,euSubUnitCode,INTERNATIONAL RIVER BASIN DISTRICT OF THE MEUSE,BEMEUSE_RW,euRBDCode,INTERNATIONAL RIVER BASIN DISTRICT OF THE MEUSE,F,50.02355,5.1016
BE,BERW_03771,euMonitoringSiteCode,BERW_03771,euMonitoringSiteCode,NOTAPPLICABLE,BERW06_LE21R,euSurfaceWaterBodyCode,VACHAUX,riverWaterBody,Natural,Missing,RIV_09,BEMEUSE_RW,euSubUnitCode,INTERNATIONAL RIVER BASIN DISTRICT OF THE MEUSE,BEMEUSE_RW,euRBDCode,INTERNATIONAL RIVER BASIN DISTRICT OF THE MEUSE,F,50.16288,5.11555
BE,BERW_03774,euMonitoringSiteCode,BERW_03774,euMonitoringSiteCode,NOTAPPLICABLE,BERW06_LE22R,euSurfaceWaterBodyCode,BIRAN,riverWaterBody,HMWB,Not a reservoir,RIV_09,BEMEUSE_RW,euSubUnitCode,INTERNATIONAL RIVER BASIN DISTRICT OF THE MEUSE,BEMEUSE_RW,euRBDCode,INTERNATIONAL RIVER BASIN DISTRICT OF THE MEUSE,F,50.15883,5.05997
BE,BERW_03780,euMonitoringSiteCode,BERW_03780,euMonitoringSiteCode,NOTAPPLICABLE,BERW06_LE29R,euSurfaceWaterBodyCode,LESSE VI,riverWaterBody,Natural,Missing,RIV_18,BEMEUSE_RW,euSubUnitCode,INTERNATIONAL RIVER BASIN DISTRICT OF THE MEUSE,BEMEUSE_RW,euRBDCode,INTERNATIONAL RIVER BASIN DISTRICT OF THE MEUSE,F,50.21909,4.9458
BE,BERW_03782,euMonitoringSiteCode,BERW_03782,euMonitoringSiteCode,NOTAPPLICABLE,BERW06_LE24R,euSurfaceWaterBodyCode,HILAN II,riverWaterBody,Natural,Missing,RIV_09,BEMEUSE_RW,euSubUnitCode,INTERNATIONAL RIVER BASIN DISTRICT OF THE MEUSE,BEMEUSE_RW,euRBDCode,INTERNATIONAL RIVER BASIN DISTRICT OF THE MEUSE,F,50.18026,5.00818
BE,BERW_03792,euMonitoringSiteCode,BERW_03792,euMonitoringSiteCode,NOTAPPLICABLE,BERW06_LE01R,euSurfaceWaterBodyCode,LESSE I,riverWaterBody,Natural,Missing,RIV_05,BEMEUSE_RW,euSubUnitCode,INTERNATIONAL RIVER BASIN DISTRICT OF THE MEUSE,BEMEUSE_RW,euRBDCode,INTERNATIONAL RIVER BASIN DISTRICT OF THE MEUSE,F,49.96487,5.19932
BE,BERW_03801,euMonitoringSiteCode,BERW_03801,euMonitoringSiteCode,NOTAPPLICABLE,BERW06_LE30R,euSurfaceWaterBodyCode,LHOMME I,riverWaterBody,Natural,Missing,RIV_05,BEMEUSE_RW,euSubUnitCode,INTERNATIONAL RIVER BASIN DISTRICT OF THE MEUSE,BEMEUSE_RW,euRBDCode,INTERNATIONAL RIVER BASIN DISTRICT OF THE MEUSE,F,49.98907,5.31935
BE,BERW_03802,euMonitoringSiteCode,BERW_03802,euMonitoringSiteCode,NOTAPPLICABLE,BERW06_LE30R,euSurfaceWaterBodyCode,LHOMME I,riverWaterBody,Natural,Missing,RIV_05,BEMEUSE_RW,euSubUnitCode,INTERNATIONAL RIVER BASIN DISTRICT OF THE MEUSE,BEMEUSE_RW,euRBDCode,INTERNATIONAL RIVER BASIN DISTRICT OF THE MEUSE,F,49.97203,5.3911
BE,BERW_03803,euMonitoringSiteCode,BERW_03803,euMonitoringSiteCode,NOTAPPLICABLE,BERW06_LE14R,euSurfaceWaterBodyCode,MASBLETTE,riverWaterBody,Natural,Missing,RIV_05,BEMEUSE_RW,euSubUnitCode,INTERNATIONAL RIVER BASIN DISTRICT OF THE MEUSE,BEMEUSE_RW,euRBDCode,INTERNATIONAL RIVER BASIN DISTRICT OF THE MEUSE,F,50.11515,5.29752
BE,BERW_03811,euMonitoringSiteCode,BERW_03811,euMonitoringSiteCode,NOTAPPLICABLE,BERW06_LE20R,euSurfaceWaterBodyCode,LESSE IV,riverWaterBody,Natural,Missing,RIV_11,BEMEUSE_RW,euSubUnitCode,INTERNATIONAL RIVER BASIN DISTRICT OF THE MEUSE,BEMEUSE_RW,euRBDCode,INTERNATIONAL RIVER BASIN DISTRICT OF THE MEUSE,F,50.1616,5.26097
BE,BERW_03812,euMonitoringSiteCode,BERW_03812,euMonitoringSiteCode,NOTAPPLICABLE,BERW06_LE15R,euSurfaceWaterBodyCode,LHOMME II,riverWaterBody,Natural,Missing,RIV_07,BEMEUSE_RW,euSubUnitCode,INTERNATIONAL RIVER BASIN DISTRICT OF THE MEUSE,BEMEUSE_RW,euRBDCode,INTERNATIONAL RIVER BASIN DISTRICT OF THE MEUSE,F,50.09232,5.27794
BE,BERW_03820,euMonitoringSiteCode,BERW_03820,euMonitoringSiteCode,NOTAPPLICABLE,BERW06_LE20R,euSurfaceWaterBodyCode,LESSE IV,riverWaterBody,Natural,Missing,RIV_11,BEMEUSE_RW,euSubUnitCode,INTERNATIONAL RIVER BASIN DISTRICT OF THE MEUSE,BEMEUSE_RW,euRBDCode,INTERNATIONAL RIVER BASIN DISTRICT OF THE MEUSE,F,50.13928,5.16413
BE,BERW_03833,euMonitoringSiteCode,BERW_03833,euMonitoringSiteCode,NOTAPPLICABLE,BERW06_LE31R,euSurfaceWaterBodyCode,RUISSEAU DU SERPONT,riverWaterBody,Natural,Missing,RIV_05,BEMEUSE_RW,euSubUnitCode,INTERNATIONAL RIVER BASIN DISTRICT OF THE MEUSE,BEMEUSE_RW,euRBDCode,INTERNATIONAL RIVER BASIN DISTRICT OF THE MEUSE,F,49.93475,5.35216
BE,BERW_03850,euMonitoringSiteCode,BERW_03850,euMonitoringSiteCode,NOTAPPLICABLE,BERW06_MM26R,euSurfaceWaterBodyCode,MOLIGNEE I,riverWaterBody,Natural,Missing,RIV_13,BEMEUSE_RW,euSubUnitCode,INTERNATIONAL RIVER BASIN DISTRICT OF THE MEUSE,BEMEUSE_RW,euRBDCode,INTERNATIONAL RIVER BASIN DISTRICT OF THE MEUSE,F,50.31849,4.8564
BE,BERW_03880,euMonitoringSiteCode,BERW_03880,euMonitoringSiteCode,NOTAPPLICABLE,BERW06_SA25R,euSurfaceWaterBodyCode,SAMBRE I,riverWaterBody,HMWB,Not a reservoir,RIV_17,BEMEUSE_RW,euSubUnitCode,INTERNATIONAL RIVER BASIN DISTRICT OF THE MEUSE,BEMEUSE_RW,euRBDCode,INTERNATIONAL RIVER BASIN DISTRICT OF THE MEUSE,F,50.30472,4.11747
BE,BERW_03901,euMonitoringSiteCode,BERW_03901,euMonitoringSiteCode,NOTAPPLICABLE,BERW06_SA04R,euSurfaceWaterBodyCode,BIESMES L'EAU,riverWaterBody,Natural,Missing,RIV_14,BEMEUSE_RW,euSubUnitCode,INTERNATIONAL RIVER BASIN DISTRICT OF THE MEUSE,BEMEUSE_RW,euRBDCode,INTERNATIONAL RIVER BASIN DISTRICT OF THE MEUSE,F,50.34154,4.28051
BE,BERW_03910,euMonitoringSiteCode,BERW_03910,euMonitoringSiteCode,NOTAPPLICABLE,BERW06_SA25R,euSurfaceWaterBodyCode,SAMBRE I,riverWaterBody,HMWB,Not a reservoir,RIV_17,BEMEUSE_RW,euSubUnitCode,INTERNATIONAL RIVER BASIN DISTRICT OF THE MEUSE,BEMEUSE_RW,euRBDCode,INTERNATIONAL RIVER BASIN DISTRICT OF THE MEUSE,F,50.40786,4.39512
BE,BERW_03930,euMonitoringSiteCode,BERW_03930,euMonitoringSiteCode,NOTAPPLICABLE,BERW06_SA27R,euSurfaceWaterBodyCode,SAMBRE II,riverWaterBody,HMWB,Not a reservoir,RIV_17,BEMEUSE_RW,euSubUnitCode,INTERNATIONAL RIVER BASIN DISTRICT OF THE MEUSE,BEMEUSE_RW,euRBDCode,INTERNATIONAL RIVER BASIN DISTRICT OF THE MEUSE,F,50.41935,4.54671
BE,BERW_03941,euMonitoringSiteCode,BERW_03941,euMonitoringSiteCode,NOTAPPLICABLE,BERW06_SA27R,euSurfaceWaterBodyCode,SAMBRE II,riverWaterBody,HMWB,Not a reservoir,RIV_17,BEMEUSE_RW,euSubUnitCode,INTERNATIONAL RIVER BASIN DISTRICT OF THE MEUSE,BEMEUSE_RW,euRBDCode,INTERNATIONAL RIVER BASIN DISTRICT OF THE MEUSE,F,50.4496,4.70366
BE,BERW_03960,euMonitoringSiteCode,BERW_03960,euMonitoringSiteCode,NOTAPPLICABLE,BERW06_SA27R,euSurfaceWaterBodyCode,SAMBRE II,riverWaterBody,HMWB,Not a reservoir,RIV_17,BEMEUSE_RW,euSubUnitCode,INTERNATIONAL RIVER BASIN DISTRICT OF THE MEUSE,BEMEUSE_RW,euRBDCode,INTERNATIONAL RIVER BASIN DISTRICT OF THE MEUSE,F,50.46429,4.85594
BE,BERW_03971,euMonitoringSiteCode,BERW_03971,euMonitoringSiteCode,NOTAPPLICABLE,BERW06_SA02R,euSurfaceWaterBodyCode,THURE,riverWaterBody,Natural,Missing,RIV_13,BEMEUSE_RW,euSubUnitCode,INTERNATIONAL RIVER BASIN DISTRICT OF THE MEUSE,BEMEUSE_RW,euRBDCode,INTERNATIONAL RIVER BASIN DISTRICT OF THE MEUSE,F,50.30596,4.15571
BE,BERW_04021,euMonitoringSiteCode,BERW_04021,euMonitoringSiteCode,NOTAPPLICABLE,BERW06_SA05R,euSurfaceWaterBodyCode,EAU D'HEURE I,riverWaterBody,HMWB,Not a reservoir,RIV_09,BEMEUSE_RW,euSubUnitCode,INTERNATIONAL RIVER BASIN DISTRICT OF THE MEUSE,BEMEUSE_RW,euRBDCode,INTERNATIONAL RIVER BASIN DISTRICT OF THE MEUSE,F,50.17538,4.40847
BE,BERW_04023,euMonitoringSiteCode,BERW_04023,euMonitoringSiteCode,NOTAPPLICABLE,BERW06_SA08R,euSurfaceWaterBodyCode,EAU D'HEURE II,riverWaterBody,Natural,Missing,RIV_13,BEMEUSE_RW,euSubUnitCode,INTERNATIONAL RIVER BASIN DISTRICT OF THE MEUSE,BEMEUSE_RW,euRBDCode,INTERNATIONAL RIVER BASIN DISTRICT OF THE MEUSE,F,50.2474,4.42599
BE,BERW_04031,euMonitoringSiteCode,BERW_04031,euMonitoringSiteCode,NOTAPPLICABLE,BERW06_SA09R,euSurfaceWaterBodyCode,THYRIA,riverWaterBody,Natural,Missing,RIV_13,BEMEUSE_RW,euSubUnitCode,INTERNATIONAL RIVER BASIN DISTRICT OF THE MEUSE,BEMEUSE_RW,euRBDCode,INTERNATIONAL RIVER BASIN DISTRICT OF THE MEUSE,F,50.28283,4.42542
BE,BERW_04050,euMonitoringSiteCode,BERW_04050,euMonitoringSiteCode,NOTAPPLICABLE,BERW06_SA11R,euSurfaceWaterBodyCode,EAU D'HEURE III,riverWaterBody,Natural,Missing,RIV_15,BEMEUSE_RW,euSubUnitCode,INTERNATIONAL RIVER BASIN DISTRICT OF THE MEUSE,BEMEUSE_RW,euRBDCode,INTERNATIONAL RIVER BASIN DISTRICT OF THE MEUSE,F,50.36731,4.39651
BE,BERW_04080,euMonitoringSiteCode,BERW_04080,euMonitoringSiteCode,NOTAPPLICABLE,BERW06_SA22R,euSurfaceWaterBodyCode,ORNEAU II,riverWaterBody,Natural,Missing,RIV_15,BEMEUSE_RW,euSubUnitCode,INTERNATIONAL RIVER BASIN DISTRICT OF THE MEUSE,BEMEUSE_RW,euRBDCode,INTERNATIONAL RIVER BASIN DISTRICT OF THE MEUSE,F,50.48412,4.66961
BE,BERW_04110,euMonitoringSiteCode,BERW_04110,euMonitoringSiteCode,NOTAPPLICABLE,BERW06_MV03R,euSurfaceWaterBodyCode,MEHAIGNE I,riverWaterBody,Natural,Missing,RIV_20,BEMEUSE_RW,euSubUnitCode,INTERNATIONAL RIVER BASIN DISTRICT OF THE MEUSE,BEMEUSE_RW,euRBDCode,INTERNATIONAL RIVER BASIN DISTRICT OF THE MEUSE,F,50.62686,5.04417
BE,BERW_04130,euMonitoringSiteCode,BERW_04130,euMonitoringSiteCode,NOTAPPLICABLE,BERW06_MV31R,euSurfaceWaterBodyCode,MEHAIGNE III,riverWaterBody,Natural,Missing,RIV_22,BEMEUSE_RW,euSubUnitCode,INTERNATIONAL RIVER BASIN DISTRICT OF THE MEUSE,BEMEUSE_RW,euRBDCode,INTERNATIONAL RIVER BASIN DISTRICT OF THE MEUSE,F,50.551,5.18414
BE,BERW_04150,euMonitoringSiteCode,BERW_04150,euMonitoringSiteCode,NOTAPPLICABLE,BERW06_MV10R,euSurfaceWaterBodyCode,HOYOUX II,riverWaterBody,Natural,Missing,RIV_15,BEMEUSE_RW,euSubUnitCode,INTERNATIONAL RIVER BASIN DISTRICT OF THE MEUSE,BEMEUSE_RW,euRBDCode,INTERNATIONAL RIVER BASIN DISTRICT OF THE MEUSE,F,50.5091,5.23815
BE,BERW_04271,euMonitoringSiteCode,BERW_04271,euMonitoringSiteCode,NOTAPPLICABLE,BERW06_OU17R,euSurfaceWaterBodyCode,OURTHE I,riverWaterBody,Natural,Missing,RIV_06,BEMEUSE_RW,euSubUnitCode,INTERNATIONAL RIVER BASIN DISTRICT OF THE MEUSE,BEMEUSE_RW,euRBDCode,INTERNATIONAL RIVER BASIN DISTRICT OF THE MEUSE,F,50.26088,5.46684
BE,BERW_04286,euMonitoringSiteCode,BERW_04286,euMonitoringSiteCode,NOTAPPLICABLE,BERW06_OU23R,euSurfaceWaterBodyCode,EAU DE SOMME,riverWaterBody,Natural,Missing,RIV_10,BEMEUSE_RW,euSubUnitCode,INTERNATIONAL RIVER BASIN DISTRICT OF THE MEUSE,BEMEUSE_RW,euRBDCode,INTERNATIONAL RIVER BASIN DISTRICT OF THE MEUSE,F,50.34342,5.4205
BE,BERW_04287,euMonitoringSiteCode,BERW_04287,euMonitoringSiteCode,NOTAPPLICABLE,BERW06_OU28R,euSurfaceWaterBodyCode,RUISSEAU DE LEMBREE,riverWaterBody,Natural,Missing,RIV_10,BEMEUSE_RW,euSubUnitCode,INTERNATIONAL RIVER BASIN DISTRICT OF THE MEUSE,BEMEUSE_RW,euRBDCode,INTERNATIONAL RIVER BASIN DISTRICT OF THE MEUSE,F,50.39367,5.53736
BE,BERW_04313,euMonitoringSiteCode,BERW_04313,euMonitoringSiteCode,NOTAPPLICABLE,BERW06_OU29R,euSurfaceWaterBodyCode,NEBLON,riverWaterBody,Natural,Missing,RIV_14,BEMEUSE_RW,euSubUnitCode,INTERNATIONAL RIVER BASIN DISTRICT OF THE MEUSE,BEMEUSE_RW,euRBDCode,INTERNATIONAL RIVER BASIN DISTRICT OF THE MEUSE,F,50.4222,5.51574
BE,BERW_04325,euMonitoringSiteCode,BERW_04325,euMonitoringSiteCode,NOTAPPLICABLE,BERW06_OU32R,euSurfaceWaterBodyCode,OURTHE III,riverWaterBody,Natural,Missing,RIV_18,BEMEUSE_RW,euSubUnitCode,INTERNATIONAL RIVER BASIN DISTRICT OF THE MEUSE,BEMEUSE_RW,euRBDCode,INTERNATIONAL RIVER BASIN DISTRICT OF THE MEUSE,F,50.60935,5.6125
BE,BERW_04380,euMonitoringSiteCode,BERW_04380,euMonitoringSiteCode,NOTAPPLICABLE,BERW06_AM03R,euSurfaceWaterBodyCode,AMBLEVE II,riverWaterBody,Natural,Missing,RIV_07,BEMEUSE_RW,euSubUnitCode,INTERNATIONAL RIVER BASIN DISTRICT OF THE MEUSE,BEMEUSE_RW,euRBDCode,INTERNATIONAL RIVER BASIN DISTRICT OF THE MEUSE,F,50.37982,6.11342
BE,BERW_04388,euMonitoringSiteCode,BERW_04388,euMonitoringSiteCode,NOTAPPLICABLE,BERW06_AM03R,euSurfaceWaterBodyCode,AMBLEVE II,riverWaterBody,Natural,Missing,RIV_07,BEMEUSE_RW,euSubUnitCode,INTERNATIONAL RIVER BASIN DISTRICT OF THE MEUSE,BEMEUSE_RW,euRBDCode,INTERNATIONAL RIVER BASIN DISTRICT OF THE MEUSE,F,50.38595,6.01042
BE,BERW_04390,euMonitoringSiteCode,BERW_04390,euMonitoringSiteCode,NOTAPPLICABLE,BERW06_AM14R,euSurfaceWaterBodyCode,AMBLEVE III,riverWaterBody,Natural,Missing,RIV_06,BEMEUSE_RW,euSubUnitCode,INTERNATIONAL RIVER BASIN DISTRICT OF THE MEUSE,BEMEUSE_RW,euRBDCode,INTERNATIONAL RIVER BASIN DISTRICT OF THE MEUSE,F,50.39176,5.93199
BE,BERW_04430,euMonitoringSiteCode,BERW_04430,euMonitoringSiteCode,NOTAPPLICABLE,BERW06_AM17R,euSurfaceWaterBodyCode,AMBLEVE IV,riverWaterBody,Natural,Missing,RIV_18,BEMEUSE_RW,euSubUnitCode,INTERNATIONAL RIVER BASIN DISTRICT OF THE MEUSE,BEMEUSE_RW,euRBDCode,INTERNATIONAL RIVER BASIN DISTRICT OF THE MEUSE,F,50.48176,5.59102
BE,BERW_04483,euMonitoringSiteCode,BERW_04483,euMonitoringSiteCode,NOTAPPLICABLE,BERW06_AM16R,euSurfaceWaterBodyCode,WARCHE III,riverWaterBody,Natural,Missing,RIV_07,BEMEUSE_RW,euSubUnitCode,INTERNATIONAL RIVER BASIN DISTRICT OF THE MEUSE,BEMEUSE_RW,euRBDCode,INTERNATIONAL RIVER BASIN DISTRICT OF THE MEUSE,F,50.38705,5.99168
BE,BERW_04511,euMonitoringSiteCode,BERW_04511,euMonitoringSiteCode,NOTAPPLICABLE,BERW06_AM18R,euSurfaceWaterBodyCode,SALM I,riverWaterBody,Natural,Missing,RIV_05,BEMEUSE_RW,euSubUnitCode,INTERNATIONAL RIVER BASIN DISTRICT OF THE MEUSE,BEMEUSE_RW,euRBDCode,INTERNATIONAL RIVER BASIN DISTRICT OF THE MEUSE,F,50.24324,5.92153
BE,BERW_04513,euMonitoringSiteCode,BERW_04513,euMonitoringSiteCode,NOTAPPLICABLE,BERW06_AM10R,euSurfaceWaterBodyCode,SALM II,riverWaterBody,Natural,Missing,RIV_07,BEMEUSE_RW,euSubUnitCode,INTERNATIONAL RIVER BASIN DISTRICT OF THE MEUSE,BEMEUSE_RW,euRBDCode,INTERNATIONAL RIVER BASIN DISTRICT OF THE MEUSE,F,50.36383,5.88617
BE,BERW_04532,euMonitoringSiteCode,BERW_04532,euMonitoringSiteCode,NOTAPPLICABLE,BERW06_AM14R,euSurfaceWaterBodyCode,AMBLEVE III,riverWaterBody,Natural,Missing,RIV_06,BEMEUSE_RW,euSubUnitCode,INTERNATIONAL RIVER BASIN DISTRICT OF THE MEUSE,BEMEUSE_RW,euRBDCode,INTERNATIONAL RIVER BASIN DISTRICT OF THE MEUSE,F,50.40963,5.76924
BE,BERW_04533,euMonitoringSiteCode,BERW_04533,euMonitoringSiteCode,NOTAPPLICABLE,BERW06_AM13R,euSurfaceWaterBodyCode,LIENNE,riverWaterBody,Natural,Missing,RIV_05,BEMEUSE_RW,euSubUnitCode,INTERNATIONAL RIVER BASIN DISTRICT OF THE MEUSE,BEMEUSE_RW,euRBDCode,INTERNATIONAL RIVER BASIN DISTRICT OF THE MEUSE,F,50.34607,5.73195
BE,BERW_04550,euMonitoringSiteCode,BERW_04550,euMonitoringSiteCode,NOTAPPLICABLE,BERW06_VE04R,euSurfaceWaterBodyCode,VESDRE II,riverWaterBody,Natural,Missing,RIV_16,BEMEUSE_RW,euSubUnitCode,INTERNATIONAL RIVER BASIN DISTRICT OF THE MEUSE,BEMEUSE_RW,euRBDCode,INTERNATIONAL RIVER BASIN DISTRICT OF THE MEUSE,F,50.60583,5.97826
BE,BERW_04580,euMonitoringSiteCode,BERW_04580,euMonitoringSiteCode,NOTAPPLICABLE,BERW06_VE18R,euSurfaceWaterBodyCode,VESDRE III,riverWaterBody,Natural,Missing,RIV_15,BEMEUSE_RW,euSubUnitCode,INTERNATIONAL RIVER BASIN DISTRICT OF THE MEUSE,BEMEUSE_RW,euRBDCode,INTERNATIONAL RIVER BASIN DISTRICT OF THE MEUSE,F,50.57494,5.83059
BE,BERW_04630,euMonitoringSiteCode,BERW_04630,euMonitoringSiteCode,NOTAPPLICABLE,BERW06_VE18R,euSurfaceWaterBodyCode,VESDRE III,riverWaterBody,Natural,Missing,RIV_15,BEMEUSE_RW,euSubUnitCode,INTERNATIONAL RIVER BASIN DISTRICT OF THE MEUSE,BEMEUSE_RW,euRBDCode,INTERNATIONAL RIVER BASIN DISTRICT OF THE MEUSE,F,50.6001,5.63322
BE,BERW_04690,euMonitoringSiteCode,BERW_04690,euMonitoringSiteCode,NOTAPPLICABLE,BERW06_MV17R,euSurfaceWaterBodyCode,BERWINNE II,riverWaterBody,Natural,Missing,RIV_15,BEMEUSE_RW,euSubUnitCode,INTERNATIONAL RIVER BASIN DISTRICT OF THE MEUSE,BEMEUSE_RW,euRBDCode,INTERNATIONAL RIVER BASIN DISTRICT OF THE MEUSE,F,50.75677,5.71339
BE,BERW_04722,euMonitoringSiteCode,BERW_04722,euMonitoringSiteCode,NOTAPPLICABLE,BERW06_MV22R,euSurfaceWaterBodyCode,GEER II,riverWaterBody,Natural,Missing,RIV_22,BEMEUSE_RW,euSubUnitCode,INTERNATIONAL RIVER BASIN DISTRICT OF THE MEUSE,BEMEUSE_RW,euRBDCode,INTERNATIONAL RIVER BASIN DISTRICT OF THE MEUSE,F,50.78178,5.6636
BE,BERW_04750,euMonitoringSiteCode,BERW_04750,euMonitoringSiteCode,NOTAPPLICABLE,BERW06_ML01R,euSurfaceWaterBodyCode,OUR I,riverWaterBody,Natural,Missing,RIV_05,BERHIN_RW,euSubUnitCode,INTERNATIONAL RIVER BASIN DISTRICT OF THE RHINE,BERHIN_RW,euRBDCode,INTERNATIONAL RIVER BASIN DISTRICT OF THE RHINE,F,50.30907,6.28542
BE,BERW_04770,euMonitoringSiteCode,BERW_04770,euMonitoringSiteCode,NOTAPPLICABLE,BERW06_ML06R,euSurfaceWaterBodyCode,OUR II,riverWaterBody,Natural,Missing,RIV_06,BERHIN_RW,euSubUnitCode,INTERNATIONAL RIVER BASIN DISTRICT OF THE RHINE,BERHIN_RW,euRBDCode,INTERNATIONAL RIVER BASIN DISTRICT OF THE RHINE,F,50.14056,6.13601
BE,BERW_04780,euMonitoringSiteCode,BERW_04780,euMonitoringSiteCode,NOTAPPLICABLE,BERW06_ML07R,euSurfaceWaterBodyCode,WILTZ,riverWaterBody,Natural,Missing,RIV_05,BERHIN_RW,euSubUnitCode,INTERNATIONAL RIVER BASIN DISTRICT OF THE RHINE,BERHIN_RW,euRBDCode,INTERNATIONAL RIVER BASIN DISTRICT OF THE RHINE,F,50.00119,5.81032
BE,BERW_04800,euMonitoringSiteCode,BERW_04800,euMonitoringSiteCode,NOTAPPLICABLE,BERW06_ML12R,euSurfaceWaterBodyCode,SURE II,riverWaterBody,Natural,Missing,RIV_06,BERHIN_RW,euSubUnitCode,INTERNATIONAL RIVER BASIN DISTRICT OF THE RHINE,BERHIN_RW,euRBDCode,INTERNATIONAL RIVER BASIN DISTRICT OF THE RHINE,F,49.86716,5.75568
BE,BERW_04809,euMonitoringSiteCode,BERW_04809,euMonitoringSiteCode,NOTAPPLICABLE,BERW06_ML15R,euSurfaceWaterBodyCode,ATTERT II,riverWaterBody,Natural,Missing,RIV_01,BERHIN_RW,euSubUnitCode,INTERNATIONAL RIVER BASIN DISTRICT OF THE RHINE,BERHIN_RW,euRBDCode,INTERNATIONAL RIVER BASIN DISTRICT OF THE RHINE,F,49.75238,5.8068
BE,BERW_05060,euMonitoringSiteCode,BERW_05060,euMonitoringSiteCode,NOTAPPLICABLE,BERW06_SC08R,euSurfaceWaterBodyCode,SEMOIS I,riverWaterBody,Natural,Missing,RIV_01,BEMEUSE_RW,euSubUnitCode,INTERNATIONAL RIVER BASIN DISTRICT OF THE MEUSE,BEMEUSE_RW,euRBDCode,INTERNATIONAL RIVER BASIN DISTRICT OF THE MEUSE,F,49.66329,5.62824
BE,BERW_05720,euMonitoringSiteCode,BERW_05720,euMonitoringSiteCode,NOTAPPLICABLE,BERW06_DG09R,euSurfaceWaterBodyCode,GRANDE GETTE II,riverWaterBody,Natural,Missing,RIV_22,BEESCAUT_RW,euSubUnitCode,INTERNATIONAL RIVER BASIN DISTRICT OF THE SCHELDT,BEESCAUT_RW,euRBDCode,INTERNATIONAL RIVER BASIN DISTRICT OF THE SCHELDT,F,50.74422,4.87185
BE,BERW_06280,euMonitoringSiteCode,BERW_06280,euMonitoringSiteCode,NOTAPPLICABLE,BERW06_DG12R,euSurfaceWaterBodyCode,PETITE GETTE II,riverWaterBody,Natural,Missing,RIV_22,BEESCAUT_RW,euSubUnitCode,INTERNATIONAL RIVER BASIN DISTRICT OF THE SCHELDT,BEESCAUT_RW,euRBDCode,INTERNATIONAL RIVER BASIN DISTRICT OF THE SCHELDT,F,50.7391,4.98265
BE,BERW_10000,euMonitoringSiteCode,BERW_10000,euMonitoringSiteCode,NOTAPPLICABLE,BERW06_VE20R,euSurfaceWaterBodyCode,WAYAI II,riverWaterBody,Natural,Missing,RIV_05,BEMEUSE_RW,euSubUnitCode,INTERNATIONAL RIVER BASIN DISTRICT OF THE MEUSE,BEMEUSE_RW,euRBDCode,INTERNATIONAL RIVER BASIN DISTRICT OF THE MEUSE,F,50.48942,5.84501
BE,BERW_10003,euMonitoringSiteCode,BERW_10003,euMonitoringSiteCode,NOTAPPLICABLE,BERW06_MV20R,euSurfaceWaterBodyCode,EXHAURE D'ANS,riverWaterBody,HMWB,Not a reservoir,RIV_20,BEMEUSE_RW,euSubUnitCode,INTERNATIONAL RIVER BASIN DISTRICT OF THE MEUSE,BEMEUSE_RW,euRBDCode,INTERNATIONAL RIVER BASIN DISTRICT OF THE MEUSE,F,50.7275,5.48848
BE,BERW_10004,euMonitoringSiteCode,BERW_10004,euMonitoringSiteCode,NOTAPPLICABLE,BERW06_EL10R,euSurfaceWaterBodyCode,RIEU D'AMOUR,riverWaterBody,HMWB,Not a reservoir,RIV_20,BEESCAUT_RW,euSubUnitCode,INTERNATIONAL RIVER BASIN DISTRICT OF THE SCHELDT,BEESCAUT_RW,euRBDCode,INTERNATIONAL RIVER BASIN DISTRICT OF THE SCHELDT,F,50.6077,3.40768
BE,BERW_10007,euMonitoringSiteCode,BERW_10007,euMonitoringSiteCode,NOTAPPLICABLE,BERW06_MV21R,euSurfaceWaterBodyCode,RIGOLE D'ALLEUR,riverWaterBody,HMWB,Not a reservoir,RIV_20,BEMEUSE_RW,euSubUnitCode,INTERNATIONAL RIVER BASIN DISTRICT OF THE MEUSE,BEMEUSE_RW,euRBDCode,INTERNATIONAL RIVER BASIN DISTRICT OF THE MEUSE,F,50.7547,5.53909
BE,BERW_10008,euMonitoringSiteCode,BERW_10008,euMonitoringSiteCode,NOTAPPLICABLE,BERW06_MM04R,euSurfaceWaterBodyCode,RUISSEAU D'AISNES,riverWaterBody,Natural,Missing,RIV_09,BEMEUSE_RW,euSubUnitCode,INTERNATIONAL RIVER BASIN DISTRICT OF THE MEUSE,BEMEUSE_RW,euRBDCode,INTERNATIONAL RIVER BASIN DISTRICT OF THE MEUSE,F,50.06077,4.46038
BE,BERW_10009,euMonitoringSiteCode,BERW_10009,euMonitoringSiteCode,NOTAPPLICABLE,BERW06_SA20R,euSurfaceWaterBodyCode,RUISSEAU DE FOSSES II,riverWaterBody,Natural,Missing,RIV_13,BEMEUSE_RW,euSubUnitCode,INTERNATIONAL RIVER BASIN DISTRICT OF THE MEUSE,BEMEUSE_RW,euRBDCode,INTERNATIONAL RIVER BASIN DISTRICT OF THE MEUSE,F,50.42419,4.62555
BE,BERW_10010,euMonitoringSiteCode,BERW_10010,euMonitoringSiteCode,NOTAPPLICABLE,BERW06_SA06R,euSurfaceWaterBodyCode,RUISSEAU DE SOUMOY,riverWaterBody,Natural,Missing,RIV_09,BEMEUSE_RW,euSubUnitCode,INTERNATIONAL RIVER BASIN DISTRICT OF THE MEUSE,BEMEUSE_RW,euRBDCode,INTERNATIONAL RIVER BASIN DISTRICT OF THE MEUSE,F,50.1898,4.43127
BE,BERW_10011,euMonitoringSiteCode,BERW_10011,euMonitoringSiteCode,NOTAPPLICABLE,BERW06_HN09R,euSurfaceWaterBodyCode,RUISSEAU D'ELWAMES,riverWaterBody,Natural,Missing,RIV_20,BEESCAUT_RW,euSubUnitCode,INTERNATIONAL RIVER BASIN DISTRICT OF THE SCHELDT,BEESCAUT_RW,euRBDCode,INTERNATIONAL RIVER BASIN DISTRICT OF THE SCHELDT,F,50.44475,3.85441
BE,BERW_10012,euMonitoringSiteCode,BERW_10012,euMonitoringSiteCode,NOTAPPLICABLE,BERW06_HN01R,euSurfaceWaterBodyCode,HAINE I,riverWaterBody,Natural,Missing,RIV_20,BEESCAUT_RW,euSubUnitCode,INTERNATIONAL RIVER BASIN DISTRICT OF THE SCHELDT,BEESCAUT_RW,euRBDCode,INTERNATIONAL RIVER BASIN DISTRICT OF THE SCHELDT,F,50.42505,4.11043
BE,BERW_11211,euMonitoringSiteCode,BERW_11211,euMonitoringSiteCode,NOTAPPLICABLE,BERW06_OU06R,euSurfaceWaterBodyCode,OURTHE OCCIDENTALE III,riverWaterBody,Natural,Missing,RIV_06,BEMEUSE_RW,euSubUnitCode,INTERNATIONAL RIVER BASIN DISTRICT OF THE MEUSE,BEMEUSE_RW,euRBDCode,INTERNATIONAL RIVER BASIN DISTRICT OF THE MEUSE,F,50.10682,5.64624
BE,BERW_11216,euMonitoringSiteCode,BERW_11216,euMonitoringSiteCode,NOTAPPLICABLE,BERW06_OU03R,euSurfaceWaterBodyCode,OURTHE OCCIDENTALE II,riverWaterBody,Natural,Missing,RIV_04,BEMEUSE_RW,euSubUnitCode,INTERNATIONAL RIVER BASIN DISTRICT OF THE MEUSE,BEMEUSE_RW,euRBDCode,INTERNATIONAL RIVER BASIN DISTRICT OF THE MEUSE,F,50.00624,5.48471
BE,BERW_11221,euMonitoringSiteCode,BERW_11221,euMonitoringSiteCode,NOTAPPLICABLE,BERW06_OU11R,euSurfaceWaterBodyCode,OURTHE ORIENTALE II,riverWaterBody,Natural,Missing,RIV_06,BEMEUSE_RW,euSubUnitCode,INTERNATIONAL RIVER BASIN DISTRICT OF THE MEUSE,BEMEUSE_RW,euRBDCode,INTERNATIONAL RIVER BASIN DISTRICT OF THE MEUSE,F,50.13666,5.72208
BE,BERW_11224,euMonitoringSiteCode,BERW_11224,euMonitoringSiteCode,NOTAPPLICABLE,BERW06_OU10R,euSurfaceWaterBodyCode,RUISSEAU DE MARTIN MOULIN,riverWaterBody,Natural,Missing,RIV_05,BEMEUSE_RW,euSubUnitCode,INTERNATIONAL RIVER BASIN DISTRICT OF THE MEUSE,BEMEUSE_RW,euRBDCode,INTERNATIONAL RIVER BASIN DISTRICT OF THE MEUSE,F,50.13372,5.72265
BE,BERW_11306,euMonitoringSiteCode,BERW_11306,euMonitoringSiteCode,NOTAPPLICABLE,BERW06_AM05R,euSurfaceWaterBodyCode,HOLZWARCHE,riverWaterBody,Natural,Missing,RIV_05,BEMEUSE_RW,euSubUnitCode,INTERNATIONAL RIVER BASIN DISTRICT OF THE MEUSE,BEMEUSE_RW,euRBDCode,INTERNATIONAL RIVER BASIN DISTRICT OF THE MEUSE,F,50.42543,6.25831
BE,BERW_11401,euMonitoringSiteCode,BERW_11401,euMonitoringSiteCode,NOTAPPLICABLE,BERW06_VE01R,euSurfaceWaterBodyCode,VESDRE I,riverWaterBody,Natural,Missing,RIV_24,BEMEUSE_RW,euSubUnitCode,INTERNATIONAL RIVER BASIN DISTRICT OF THE MEUSE,BEMEUSE_RW,euRBDCode,INTERNATIONAL RIVER BASIN DISTRICT OF THE MEUSE,F,50.63169,6.13728
BE,BERW_11410,euMonitoringSiteCode,BERW_11410,euMonitoringSiteCode,NOTAPPLICABLE,BERW06_VE02R,euSurfaceWaterBodyCode,GETZBACH,riverWaterBody,Natural,Missing,RIV_24,BEMEUSE_RW,euSubUnitCode,INTERNATIONAL RIVER BASIN DISTRICT OF THE MEUSE,BEMEUSE_RW,euRBDCode,INTERNATIONAL RIVER BASIN DISTRICT OF THE MEUSE,F,50.60576,6.10885
BE,BERW_11502,euMonitoringSiteCode,BERW_11502,euMonitoringSiteCode,NOTAPPLICABLE,BERW06_VE06R,euSurfaceWaterBodyCode,GILEPPE,riverWaterBody,Natural,Missing,RIV_24,BEMEUSE_RW,euSubUnitCode,INTERNATIONAL RIVER BASIN DISTRICT OF THE MEUSE,BEMEUSE_RW,euRBDCode,INTERNATIONAL RIVER BASIN DISTRICT OF THE MEUSE,F,50.57269,6.00577
BE,BERW_11503,euMonitoringSiteCode,BERW_11503,euMonitoringSiteCode,NOTAPPLICABLE,BERW06_VE06R,euSurfaceWaterBodyCode,GILEPPE,riverWaterBody,Natural,Missing,RIV_24,BEMEUSE_RW,euSubUnitCode,INTERNATIONAL RIVER BASIN DISTRICT OF THE MEUSE,BEMEUSE_RW,euRBDCode,INTERNATIONAL RIVER BASIN DISTRICT OF THE MEUSE,F,50.57089,6.00127
BE,BERW_11602,euMonitoringSiteCode,BERW_11602,euMonitoringSiteCode,NOTAPPLICABLE,BERW06_ML11R,euSurfaceWaterBodyCode,SURBACH,riverWaterBody,Natural,Missing,RIV_05,BERHIN_RW,euSubUnitCode,INTERNATIONAL RIVER BASIN DISTRICT OF THE RHINE,BERHIN_RW,euRBDCode,INTERNATIONAL RIVER BASIN DISTRICT OF THE RHINE,F,49.92336,5.73396
BE,BERW_12014,euMonitoringSiteCode,BERW_12014,euMonitoringSiteCode,NOTAPPLICABLE,BERW06_MM39R,euSurfaceWaterBodyCode,RY DE ROME,riverWaterBody,Natural,Missing,RIV_05,BEMEUSE_RW,euSubUnitCode,INTERNATIONAL RIVER BASIN DISTRICT OF THE MEUSE,BEMEUSE_RW,euRBDCode,INTERNATIONAL RIVER BASIN DISTRICT OF THE MEUSE,F,50.03745,4.50192
BE,BERW_12024,euMonitoringSiteCode,BERW_12024,euMonitoringSiteCode,NOTAPPLICABLE,BERW06_MM07R,euSurfaceWaterBodyCode,BROUFFE,riverWaterBody,Natural,Missing,RIV_09,BEMEUSE_RW,euSubUnitCode,INTERNATIONAL RIVER BASIN DISTRICT OF THE MEUSE,BEMEUSE_RW,euRBDCode,INTERNATIONAL RIVER BASIN DISTRICT OF THE MEUSE,F,50.09441,4.52893
BE,BERW_12031,euMonitoringSiteCode,BERW_12031,euMonitoringSiteCode,NOTAPPLICABLE,BERW06_MM26R,euSurfaceWaterBodyCode,MOLIGNEE I,riverWaterBody,Natural,Missing,RIV_13,BEMEUSE_RW,euSubUnitCode,INTERNATIONAL RIVER BASIN DISTRICT OF THE MEUSE,BEMEUSE_RW,euRBDCode,INTERNATIONAL RIVER BASIN DISTRICT OF THE MEUSE,F,50.2919,4.81853
BE,BERW_12041,euMonitoringSiteCode,BERW_12041,euMonitoringSiteCode,NOTAPPLICABLE,BERW06_MM25R,euSurfaceWaterBodyCode,RUISSEAU DES FONDS DE LEFFE,riverWaterBody,Natural,Missing,RIV_14,BEMEUSE_RW,euSubUnitCode,INTERNATIONAL RIVER BASIN DISTRICT OF THE MEUSE,BEMEUSE_RW,euRBDCode,INTERNATIONAL RIVER BASIN DISTRICT OF THE MEUSE,F,50.26898,4.91168
BE,BERW_12071,euMonitoringSiteCode,BERW_12071,euMonitoringSiteCode,NOTAPPLICABLE,BERW06_MM31R,euSurfaceWaterBodyCode,BURNOT,riverWaterBody,HMWB,Not a reservoir,RIV_14,BEMEUSE_RW,euSubUnitCode,INTERNATIONAL RIVER BASIN DISTRICT OF THE MEUSE,BEMEUSE_RW,euRBDCode,INTERNATIONAL RIVER BASIN DISTRICT OF THE MEUSE,F,50.36364,4.84701
BE,BERW_12093,euMonitoringSiteCode,BERW_12093,euMonitoringSiteCode,NOTAPPLICABLE,BERW06_SC01R,euSurfaceWaterBodyCode,RUISSEAU DE LACLAIREAU,riverWaterBody,Natural,Missing,RIV_02,BEMEUSE_RW,euSubUnitCode,INTERNATIONAL RIVER BASIN DISTRICT OF THE MEUSE,BEMEUSE_RW,euRBDCode,INTERNATIONAL RIVER BASIN DISTRICT OF THE MEUSE,F,49.59512,5.59881
BE,BERW_12101,euMonitoringSiteCode,BERW_12101,euMonitoringSiteCode,NOTAPPLICABLE,BERW06_SC02R,euSurfaceWaterBodyCode,TON I,riverWaterBody,Natural,Missing,RIV_01,BEMEUSE_RW,euSubUnitCode,INTERNATIONAL RIVER BASIN DISTRICT OF THE MEUSE,BEMEUSE_RW,euRBDCode,INTERNATIONAL RIVER BASIN DISTRICT OF THE MEUSE,F,49.59224,5.55511
BE,BERW_12111,euMonitoringSiteCode,BERW_12111,euMonitoringSiteCode,NOTAPPLICABLE,BERW06_SC09R,euSurfaceWaterBodyCode,RULLES I,riverWaterBody,Natural,Missing,RIV_04,BEMEUSE_RW,euSubUnitCode,INTERNATIONAL RIVER BASIN DISTRICT OF THE MEUSE,BEMEUSE_RW,euRBDCode,INTERNATIONAL RIVER BASIN DISTRICT OF THE MEUSE,F,49.74534,5.68541
BE,BERW_12144,euMonitoringSiteCode,BERW_12144,euMonitoringSiteCode,NOTAPPLICABLE,BERW06_SC29R,euSurfaceWaterBodyCode,RUISSEAU DES ALLEINES,riverWaterBody,Natural,Missing,RIV_05,BEMEUSE_RW,euSubUnitCode,INTERNATIONAL RIVER BASIN DISTRICT OF THE MEUSE,BEMEUSE_RW,euRBDCode,INTERNATIONAL RIVER BASIN DISTRICT OF THE MEUSE,F,49.8109,5.16741
BE,BERW_12161,euMonitoringSiteCode,BERW_12161,euMonitoringSiteCode,NOTAPPLICABLE,BERW06_MV15R,euSurfaceWaterBodyCode,RUISSEAU DE SAINT JULIENNE,riverWaterBody,Natural,Missing,RIV_14,BEMEUSE_RW,euSubUnitCode,INTERNATIONAL RIVER BASIN DISTRICT OF THE MEUSE,BEMEUSE_RW,euRBDCode,INTERNATIONAL RIVER BASIN DISTRICT OF THE MEUSE,F,50.70342,5.68588
BE,BERW_12174,euMonitoringSiteCode,BERW_12174,euMonitoringSiteCode,NOTAPPLICABLE,BERW06_SA01R,euSurfaceWaterBodyCode,EAU D'EPPE,riverWaterBody,Natural,Missing,RIV_09,BEMEUSE_RW,euSubUnitCode,INTERNATIONAL RIVER BASIN DISTRICT OF THE MEUSE,BEMEUSE_RW,euRBDCode,INTERNATIONAL RIVER BASIN DISTRICT OF THE MEUSE,F,50.12397,4.21463
BE,BERW_12181,euMonitoringSiteCode,BERW_12181,euMonitoringSiteCode,NOTAPPLICABLE,BERW06_OS01R,euSurfaceWaterBodyCode,OISE,riverWaterBody,Natural,Missing,RIV_04,BEMEUSE_RW,euSubUnitCode,INTERNATIONAL RIVER BASIN DISTRICT OF THE MEUSE,BEMEUSE_RW,euRBDCode,INTERNATIONAL RIVER BASIN DISTRICT OF THE MEUSE,F,49.97736,4.17286
BE,BERW_12201,euMonitoringSiteCode,BERW_12201,euMonitoringSiteCode,NOTAPPLICABLE,BERW06_SA03R,euSurfaceWaterBodyCode,HANTES,riverWaterBody,Natural,Missing,RIV_13,BEMEUSE_RW,euSubUnitCode,INTERNATIONAL RIVER BASIN DISTRICT OF THE MEUSE,BEMEUSE_RW,euRBDCode,INTERNATIONAL RIVER BASIN DISTRICT OF THE MEUSE,F,50.14928,4.34634
BE,BERW_12221,euMonitoringSiteCode,BERW_12221,euMonitoringSiteCode,NOTAPPLICABLE,BERW06_SA26R,euSurfaceWaterBodyCode,RUISSEAU D'HANZINNE II,riverWaterBody,HMWB,Not a reservoir,RIV_14,BEMEUSE_RW,euSubUnitCode,INTERNATIONAL RIVER BASIN DISTRICT OF THE MEUSE,BEMEUSE_RW,euRBDCode,INTERNATIONAL RIVER BASIN DISTRICT OF THE MEUSE,F,50.38087,4.52207
BE,BERW_12224,euMonitoringSiteCode,BERW_12224,euMonitoringSiteCode,NOTAPPLICABLE,BERW06_SA15R,euSurfaceWaterBodyCode,RUISSEAU D'HANZINNE I,riverWaterBody,Natural,Missing,RIV_14,BEMEUSE_RW,euSubUnitCode,INTERNATIONAL RIVER BASIN DISTRICT OF THE MEUSE,BEMEUSE_RW,euRBDCode,INTERNATIONAL RIVER BASIN DISTRICT OF THE MEUSE,F,50.32903,4.5304
BE,BERW_12232,euMonitoringSiteCode,BERW_12232,euMonitoringSiteCode,NOTAPPLICABLE,BERW06_SA17R,euSurfaceWaterBodyCode,BIESME I,riverWaterBody,Natural,Missing,RIV_14,BEMEUSE_RW,euSubUnitCode,INTERNATIONAL RIVER BASIN DISTRICT OF THE MEUSE,BEMEUSE_RW,euRBDCode,INTERNATIONAL RIVER BASIN DISTRICT OF THE MEUSE,F,50.37875,4.58717
BE,BERW_12235,euMonitoringSiteCode,BERW_12235,euMonitoringSiteCode,NOTAPPLICABLE,BERW06_SA18R,euSurfaceWaterBodyCode,BIESME II,riverWaterBody,HMWB,Not a reservoir,RIV_13,BEMEUSE_RW,euSubUnitCode,INTERNATIONAL RIVER BASIN DISTRICT OF THE MEUSE,BEMEUSE_RW,euRBDCode,INTERNATIONAL RIVER BASIN DISTRICT OF THE MEUSE,F,50.40506,4.58714
BE,BERW_12283,euMonitoringSiteCode,BERW_12283,euMonitoringSiteCode,NOTAPPLICABLE,BERW06_SN02C,euSurfaceWaterBodyCode,ANCIEN CANAL CHARLEROI-BRUXELLES,riverWaterBody,AWB,Missing,RIV_25,BEESCAUT_RW,euSubUnitCode,INTERNATIONAL RIVER BASIN DISTRICT OF THE SCHELDT,BEESCAUT_RW,euRBDCode,INTERNATIONAL RIVER BASIN DISTRICT OF THE SCHELDT,F,50.59751,4.24273
BE,BERW_12311,euMonitoringSiteCode,BERW_12311,euMonitoringSiteCode,NOTAPPLICABLE,BERW06_DG05R,euSurfaceWaterBodyCode,TRAIN,riverWaterBody,Natural,Missing,RIV_20,BEESCAUT_RW,euSubUnitCode,INTERNATIONAL RIVER BASIN DISTRICT OF THE SCHELDT,BEESCAUT_RW,euRBDCode,INTERNATIONAL RIVER BASIN DISTRICT OF THE SCHELDT,F,50.7134,4.69974
BE,BERW_12321,euMonitoringSiteCode,BERW_12321,euMonitoringSiteCode,NOTAPPLICABLE,BERW06_EL07R,euSurfaceWaterBodyCode,ELNON,riverWaterBody,Natural,Missing,RIV_20,BEESCAUT_RW,euSubUnitCode,INTERNATIONAL RIVER BASIN DISTRICT OF THE SCHELDT,BEESCAUT_RW,euRBDCode,INTERNATIONAL RIVER BASIN DISTRICT OF THE SCHELDT,F,50.49371,3.3709
BE,BERW_12409,euMonitoringSiteCode,BERW_12409,euMonitoringSiteCode,NOTAPPLICABLE,BERW06_MV26R,euSurfaceWaterBodyCode,GUEULE II,riverWaterBody,Natural,Missing,RIV_15,BEMEUSE_RW,euSubUnitCode,INTERNATIONAL RIVER BASIN DISTRICT OF THE MEUSE,BEMEUSE_RW,euRBDCode,INTERNATIONAL RIVER BASIN DISTRICT OF THE MEUSE,F,50.75052,5.94087
BE,BERW_14101,euMonitoringSiteCode,BERW_14101,euMonitoringSiteCode,NOTAPPLICABLE,BERW06_AM18R,euSurfaceWaterBodyCode,SALM I,riverWaterBody,Natural,Missing,RIV_05,BEMEUSE_RW,euSubUnitCode,INTERNATIONAL RIVER BASIN DISTRICT OF THE MEUSE,BEMEUSE_RW,euRBDCode,INTERNATIONAL RIVER BASIN DISTRICT OF THE MEUSE,F,50.24605,5.91047
BE,BERW_14305,euMonitoringSiteCode,BERW_14305,euMonitoringSiteCode,NOTAPPLICABLE,BERW06_VE03R,euSurfaceWaterBodyCode,HELLE,riverWaterBody,Natural,Missing,RIV_24,BEMEUSE_RW,euSubUnitCode,INTERNATIONAL RIVER BASIN DISTRICT OF THE MEUSE,BEMEUSE_RW,euRBDCode,INTERNATIONAL RIVER BASIN DISTRICT OF THE MEUSE,F,50.6025,6.05405
BE,BERW_14504,euMonitoringSiteCode,BERW_14504,euMonitoringSiteCode,NOTAPPLICABLE,BERW06_MV28R,euSurfaceWaterBodyCode,ROER,riverWaterBody,Natural,Missing,RIV_24,BEMEUSE_RW,euSubUnitCode,INTERNATIONAL RIVER BASIN DISTRICT OF THE MEUSE,BEMEUSE_RW,euRBDCode,INTERNATIONAL RIVER BASIN DISTRICT OF THE MEUSE,F,50.49403,6.17231
BE,BERW_14510,euMonitoringSiteCode,BERW_14510,euMonitoringSiteCode,NOTAPPLICABLE,BERW06_MV29R,euSurfaceWaterBodyCode,SCHWALMBACH,riverWaterBody,Natural,Missing,RIV_04,BEMEUSE_RW,euSubUnitCode,INTERNATIONAL RIVER BASIN DISTRICT OF THE MEUSE,BEMEUSE_RW,euRBDCode,INTERNATIONAL RIVER BASIN DISTRICT OF THE MEUSE,F,50.48555,6.25713
BE,BERW_14511,euMonitoringSiteCode,BERW_14511,euMonitoringSiteCode,NOTAPPLICABLE,BERW06_MV30R,euSurfaceWaterBodyCode,OLEFBACH,riverWaterBody,Natural,Missing,RIV_05,BEMEUSE_RW,euSubUnitCode,INTERNATIONAL RIVER BASIN DISTRICT OF THE MEUSE,BEMEUSE_RW,euRBDCode,INTERNATIONAL RIVER BASIN DISTRICT OF THE MEUSE,F,50.48154,6.34106
BE,BERW_15006,euMonitoringSiteCode,BERW_15006,euMonitoringSiteCode,NOTAPPLICABLE,BERW06_OU32R,euSurfaceWaterBodyCode,OURTHE III,riverWaterBody,Natural,Missing,RIV_18,BEMEUSE_RW,euSubUnitCode,INTERNATIONAL RIVER BASIN DISTRICT OF THE MEUSE,BEMEUSE_RW,euRBDCode,INTERNATIONAL RIVER BASIN DISTRICT OF THE MEUSE,F,50.45617,5.56608
BE,BERW_15013,euMonitoringSiteCode,BERW_15013,euMonitoringSiteCode,NOTAPPLICABLE,BERW06_OU33R,euSurfaceWaterBodyCode,MARCHETTE II,riverWaterBody,Natural,Missing,RIV_09,BEMEUSE_RW,euSubUnitCode,INTERNATIONAL RIVER BASIN DISTRICT OF THE MEUSE,BEMEUSE_RW,euRBDCode,INTERNATIONAL RIVER BASIN DISTRICT OF THE MEUSE,F,50.29622,5.39399
BE,BERW_15022,euMonitoringSiteCode,BERW_15022,euMonitoringSiteCode,NOTAPPLICABLE,BERW06_MV08R,euSurfaceWaterBodyCode,RUISSEAU DU TRIFFOY,riverWaterBody,Natural,Missing,RIV_13,BEMEUSE_RW,euSubUnitCode,INTERNATIONAL RIVER BASIN DISTRICT OF THE MEUSE,BEMEUSE_RW,euRBDCode,INTERNATIONAL RIVER BASIN DISTRICT OF THE MEUSE,F,50.46705,5.25802
BE,BERW_15024,euMonitoringSiteCode,BERW_15024,euMonitoringSiteCode,NOTAPPLICABLE,BERW06_MV07R,euSurfaceWaterBodyCode,HOYOUX I,riverWaterBody,Natural,Missing,RIV_13,BEMEUSE_RW,euSubUnitCode,INTERNATIONAL RIVER BASIN DISTRICT OF THE MEUSE,BEMEUSE_RW,euRBDCode,INTERNATIONAL RIVER BASIN DISTRICT OF THE MEUSE,F,50.46333,5.27623
BE,BERW_15041,euMonitoringSiteCode,BERW_15041,euMonitoringSiteCode,NOTAPPLICABLE,BERW06_SC41R,euSurfaceWaterBodyCode,VIERRE IV,riverWaterBody,Natural,Missing,RIV_03,BEMEUSE_RW,euSubUnitCode,INTERNATIONAL RIVER BASIN DISTRICT OF THE MEUSE,BEMEUSE_RW,euRBDCode,INTERNATIONAL RIVER BASIN DISTRICT OF THE MEUSE,F,49.70158,5.41942
BE,BERW_15044,euMonitoringSiteCode,BERW_15044,euMonitoringSiteCode,NOTAPPLICABLE,BERW06_MM15R,euSurfaceWaterBodyCode,RUISSEAU DE SCHELOUPE,riverWaterBody,Natural,Missing,RIV_05,BEMEUSE_RW,euSubUnitCode,INTERNATIONAL RIVER BASIN DISTRICT OF THE MEUSE,BEMEUSE_RW,euRBDCode,INTERNATIONAL RIVER BASIN DISTRICT OF THE MEUSE,F,50.13178,4.89873
BE,BERW_15047,euMonitoringSiteCode,BERW_15047,euMonitoringSiteCode,NOTAPPLICABLE,BERW06_SA08R,euSurfaceWaterBodyCode,EAU D'HEURE II,riverWaterBody,Natural,Missing,RIV_13,BEMEUSE_RW,euSubUnitCode,INTERNATIONAL RIVER BASIN DISTRICT OF THE MEUSE,BEMEUSE_RW,euRBDCode,INTERNATIONAL RIVER BASIN DISTRICT OF THE MEUSE,F,50.24848,4.44319
BE,BERW_15049,euMonitoringSiteCode,BERW_15049,euMonitoringSiteCode,UNKNOWN,BERW06_MM28R,euSurfaceWaterBodyCode,BOCQ I,riverWaterBody,Natural,Missing,RIV_13,BEMEUSE_RW,euSubUnitCode,INTERNATIONAL RIVER BASIN DISTRICT OF THE MEUSE,BEMEUSE_RW,euRBDCode,INTERNATIONAL RIVER BASIN DISTRICT OF THE MEUSE,F,50.3251,5.0657
BE,BERW_15054,euMonitoringSiteCode,BERW_15054,euMonitoringSiteCode,NOTAPPLICABLE,BERW06_VE12R,euSurfaceWaterBodyCode,HOEGNE II,riverWaterBody,Natural,Missing,RIV_14,BEMEUSE_RW,euSubUnitCode,INTERNATIONAL RIVER BASIN DISTRICT OF THE MEUSE,BEMEUSE_RW,euRBDCode,INTERNATIONAL RIVER BASIN DISTRICT OF THE MEUSE,F,50.52636,5.83233
BE,BERW_15057,euMonitoringSiteCode,BERW_15057,euMonitoringSiteCode,NOTAPPLICABLE,BERW06_VE14R,euSurfaceWaterBodyCode,HOEGNE III,riverWaterBody,Natural,Missing,RIV_16,BEMEUSE_RW,euSubUnitCode,INTERNATIONAL RIVER BASIN DISTRICT OF THE MEUSE,BEMEUSE_RW,euRBDCode,INTERNATIONAL RIVER BASIN DISTRICT OF THE MEUSE,F,50.55359,5.80467
BE,BERW_15060,euMonitoringSiteCode,BERW_15060,euMonitoringSiteCode,NOTAPPLICABLE,BERW06_SA03R,euSurfaceWaterBodyCode,HANTES,riverWaterBody,Natural,Missing,RIV_13,BEMEUSE_RW,euSubUnitCode,INTERNATIONAL RIVER BASIN DISTRICT OF THE MEUSE,BEMEUSE_RW,euRBDCode,INTERNATIONAL RIVER BASIN DISTRICT OF THE MEUSE,F,50.29914,4.17308
BE,BERW_15062,euMonitoringSiteCode,BERW_15062,euMonitoringSiteCode,NOTAPPLICABLE,BERW06_SC35R,euSurfaceWaterBodyCode,RUISSEAU DU RUX AU MOULIN,riverWaterBody,Natural,Missing,RIV_05,BEMEUSE_RW,euSubUnitCode,INTERNATIONAL RIVER BASIN DISTRICT OF THE MEUSE,BEMEUSE_RW,euRBDCode,INTERNATIONAL RIVER BASIN DISTRICT OF THE MEUSE,F,49.87796,4.9441
BE,BERW_15063,euMonitoringSiteCode,BERW_15063,euMonitoringSiteCode,NOTAPPLICABLE,BERW06_SC27R,euSurfaceWaterBodyCode,RUISSEAU DE MUNO,riverWaterBody,Natural,Missing,RIV_05,BEMEUSE_RW,euSubUnitCode,INTERNATIONAL RIVER BASIN DISTRICT OF THE MEUSE,BEMEUSE_RW,euRBDCode,INTERNATIONAL RIVER BASIN DISTRICT OF THE MEUSE,F,49.81284,5.22314
BE,BERW_15064,euMonitoringSiteCode,BERW_15064,euMonitoringSiteCode,NOTAPPLICABLE,BERW06_SC20R,euSurfaceWaterBodyCode,RUISSEAU DE NEUFCHATEAU,riverWaterBody,Natural,Missing,RIV_05,BEMEUSE_RW,euSubUnitCode,INTERNATIONAL RIVER BASIN DISTRICT OF THE MEUSE,BEMEUSE_RW,euRBDCode,INTERNATIONAL RIVER BASIN DISTRICT OF THE MEUSE,F,49.82203,5.38919
BE,BERW_15066,euMonitoringSiteCode,BERW_15066,euMonitoringSiteCode,NOTAPPLICABLE,BERW06_AM19R,euSurfaceWaterBodyCode,RUISSEAU DE HERMANMONT,riverWaterBody,Natural,Missing,RIV_05,BEMEUSE_RW,euSubUnitCode,INTERNATIONAL RIVER BASIN DISTRICT OF THE MEUSE,BEMEUSE_RW,euRBDCode,INTERNATIONAL RIVER BASIN DISTRICT OF THE MEUSE,F,50.2886,5.94277
BE,BERW_15067,euMonitoringSiteCode,BERW_15067,euMonitoringSiteCode,NOTAPPLICABLE,BERW06_OU21R,euSurfaceWaterBodyCode,MARCHETTE I,riverWaterBody,Natural,Missing,RIV_09,BEMEUSE_RW,euSubUnitCode,INTERNATIONAL RIVER BASIN DISTRICT OF THE MEUSE,BEMEUSE_RW,euRBDCode,INTERNATIONAL RIVER BASIN DISTRICT OF THE MEUSE,F,50.2666,5.34688
BE,BERW_15069,euMonitoringSiteCode,BERW_15069,euMonitoringSiteCode,NOTAPPLICABLE,BERW06_LE18R,euSurfaceWaterBodyCode,WAMME II,riverWaterBody,Natural,Missing,RIV_10,BEMEUSE_RW,euSubUnitCode,INTERNATIONAL RIVER BASIN DISTRICT OF THE MEUSE,BEMEUSE_RW,euRBDCode,INTERNATIONAL RIVER BASIN DISTRICT OF THE MEUSE,F,50.17328,5.28899
BE,BERW_40000,euMonitoringSiteCode,BERW_40000,euMonitoringSiteCode,NOTAPPLICABLE,BERW06_MV04R,euSurfaceWaterBodyCode,BURDINALE,riverWaterBody,Natural,Missing,RIV_20,BEMEUSE_RW,euSubUnitCode,INTERNATIONAL RIVER BASIN DISTRICT OF THE MEUSE,BEMEUSE_RW,euRBDCode,INTERNATIONAL RIVER BASIN DISTRICT OF THE MEUSE,F,50.57196,5.16258
BE,BERW_40017,euMonitoringSiteCode,BERW_40017,euMonitoringSiteCode,NOTAPPLICABLE,BERW06_SA21R,euSurfaceWaterBodyCode,ORNEAU I,riverWaterBody,Natural,Missing,RIV_20,BEMEUSE_RW,euSubUnitCode,INTERNATIONAL RIVER BASIN DISTRICT OF THE MEUSE,BEMEUSE_RW,euRBDCode,INTERNATIONAL RIVER BASIN DISTRICT OF THE MEUSE,F,50.50377,4.66456
BE,BERW_40019,euMonitoringSiteCode,BERW_40019,euMonitoringSiteCode,NOTAPPLICABLE,BERW06_SA21R,euSurfaceWaterBodyCode,ORNEAU I,riverWaterBody,Natural,Missing,RIV_20,BEMEUSE_RW,euSubUnitCode,INTERNATIONAL RIVER BASIN DISTRICT OF THE MEUSE,BEMEUSE_RW,euRBDCode,INTERNATIONAL RIVER BASIN DISTRICT OF THE MEUSE,F,50.51636,4.68008
BE,BERW_40032,euMonitoringSiteCode,BERW_40032,euMonitoringSiteCode,NOTAPPLICABLE,BERW06_MM40R,euSurfaceWaterBodyCode,SAMSON,riverWaterBody,Natural,Missing,RIV_14,BEMEUSE_RW,euSubUnitCode,INTERNATIONAL RIVER BASIN DISTRICT OF THE MEUSE,BEMEUSE_RW,euRBDCode,INTERNATIONAL RIVER BASIN DISTRICT OF THE MEUSE,F,50.45805,5.00144
BE,BERW_40038,euMonitoringSiteCode,BERW_40038,euMonitoringSiteCode,NOTAPPLICABLE,BERW06_MM29R,euSurfaceWaterBodyCode,RUISSEAU DE CRUPET,riverWaterBody,Natural,Missing,RIV_14,BEMEUSE_RW,euSubUnitCode,INTERNATIONAL RIVER BASIN DISTRICT OF THE MEUSE,BEMEUSE_RW,euRBDCode,INTERNATIONAL RIVER BASIN DISTRICT OF THE MEUSE,F,50.34648,4.93722
BE,BERW_40039,euMonitoringSiteCode,BERW_40039,euMonitoringSiteCode,NOTAPPLICABLE,BERW06_MM30R,euSurfaceWaterBodyCode,BOCQ II,riverWaterBody,Natural,Missing,RIV_15,BEMEUSE_RW,euSubUnitCode,INTERNATIONAL RIVER BASIN DISTRICT OF THE MEUSE,BEMEUSE_RW,euRBDCode,INTERNATIONAL RIVER BASIN DISTRICT OF THE MEUSE,F,50.33807,4.90686
BE,BERW_40048,euMonitoringSiteCode,BERW_40048,euMonitoringSiteCode,NOTAPPLICABLE,BERW06_EL06R,euSurfaceWaterBodyCode,VERNE DE BURY,riverWaterBody,Natural,Missing,RIV_20,BEESCAUT_RW,euSubUnitCode,INTERNATIONAL RIVER BASIN DISTRICT OF THE SCHELDT,BEESCAUT_RW,euRBDCode,INTERNATIONAL RIVER BASIN DISTRICT OF THE SCHELDT,F,50.48788,3.50304
BE,BERW_40053,euMonitoringSiteCode,BERW_40053,euMonitoringSiteCode,NOTAPPLICABLE,BERW06_MM41R,euSurfaceWaterBodyCode,RUISSEAU DU TRONQUOIS,riverWaterBody,Natural,Missing,RIV_14,BEMEUSE_RW,euSubUnitCode,INTERNATIONAL RIVER BASIN DISTRICT OF THE MEUSE,BEMEUSE_RW,euRBDCode,INTERNATIONAL RIVER BASIN DISTRICT OF THE MEUSE,F,50.44006,4.98641
BE,BERW_40058,euMonitoringSiteCode,BERW_40058,euMonitoringSiteCode,NOTAPPLICABLE,BERW06_SC02R,euSurfaceWaterBodyCode,TON I,riverWaterBody,Natural,Missing,RIV_01,BEMEUSE_RW,euSubUnitCode,INTERNATIONAL RIVER BASIN DISTRICT OF THE MEUSE,BEMEUSE_RW,euRBDCode,INTERNATIONAL RIVER BASIN DISTRICT OF THE MEUSE,F,49.55895,5.53155
BE,BERW_40073,euMonitoringSiteCode,BERW_40073,euMonitoringSiteCode,NOTAPPLICABLE,BERW06_DE01R,euSurfaceWaterBodyCode,DENDRE OCCIDENTALE,riverWaterBody,HMWB,Not a reservoir,RIV_20,BEESCAUT_RW,euSubUnitCode,INTERNATIONAL RIVER BASIN DISTRICT OF THE SCHELDT,BEESCAUT_RW,euRBDCode,INTERNATIONAL RIVER BASIN DISTRICT OF THE SCHELDT,F,50.6203,3.72958
BE,BERW_40075,euMonitoringSiteCode,BERW_40075,euMonitoringSiteCode,NOTAPPLICABLE,BERW06_DE05R,euSurfaceWaterBodyCode,SILLE,riverWaterBody,Natural,Missing,RIV_20,BEESCAUT_RW,euSubUnitCode,INTERNATIONAL RIVER BASIN DISTRICT OF THE SCHELDT,BEESCAUT_RW,euRBDCode,INTERNATIONAL RIVER BASIN DISTRICT OF THE SCHELDT,F,50.66451,3.81982
BE,BERW_40076,euMonitoringSiteCode,BERW_40076,euMonitoringSiteCode,NOTAPPLICABLE,BERW06_DE07R,euSurfaceWaterBodyCode,RUISSEAU D'ANCRE,riverWaterBody,Natural,Missing,RIV_20,BEESCAUT_RW,euSubUnitCode,INTERNATIONAL RIVER BASIN DISTRICT OF THE SCHELDT,BEESCAUT_RW,euRBDCode,INTERNATIONAL RIVER BASIN DISTRICT OF THE SCHELDT,F,50.72144,3.79019
BE,BERW_40077,euMonitoringSiteCode,BERW_40077,euMonitoringSiteCode,NOTAPPLICABLE,BERW06_DE10R,euSurfaceWaterBodyCode,MARCQ II,riverWaterBody,HMWB,Not a reservoir,RIV_20,BEESCAUT_RW,euSubUnitCode,INTERNATIONAL RIVER BASIN DISTRICT OF THE SCHELDT,BEESCAUT_RW,euRBDCode,INTERNATIONAL RIVER BASIN DISTRICT OF THE SCHELDT,F,50.74195,3.88054
BE,BERW_40081,euMonitoringSiteCode,BERW_40081,euMonitoringSiteCode,NOTAPPLICABLE,BERW06_DG03R,euSurfaceWaterBodyCode,LASNE,riverWaterBody,Natural,Missing,RIV_20,BEESCAUT_RW,euSubUnitCode,INTERNATIONAL RIVER BASIN DISTRICT OF THE SCHELDT,BEESCAUT_RW,euRBDCode,INTERNATIONAL RIVER BASIN DISTRICT OF THE SCHELDT,F,50.73445,4.55547
BE,BERW_40086,euMonitoringSiteCode,BERW_40086,euMonitoringSiteCode,NOTAPPLICABLE,BERW06_ML04R,euSurfaceWaterBodyCode,BRAUNLAUF II,riverWaterBody,Natural,Missing,RIV_04,BERHIN_RW,euSubUnitCode,INTERNATIONAL RIVER BASIN DISTRICT OF THE RHINE,BERHIN_RW,euRBDCode,INTERNATIONAL RIVER BASIN DISTRICT OF THE RHINE,F,50.23442,6.15436
BE,BERW_40088,euMonitoringSiteCode,BERW_40088,euMonitoringSiteCode,NOTAPPLICABLE,BERW06_HN04C,euSurfaceWaterBodyCode,ANCIEN CANAL DE POMMEROEUL,riverWaterBody,AWB,Missing,RIV_25,BEESCAUT_RW,euSubUnitCode,INTERNATIONAL RIVER BASIN DISTRICT OF THE SCHELDT,BEESCAUT_RW,euRBDCode,INTERNATIONAL RIVER BASIN DISTRICT OF THE SCHELDT,F,50.47954,3.67244
BE,BERW_40091,euMonitoringSiteCode,BERW_40091,euMonitoringSiteCode,NOTAPPLICABLE,BERW06_AM08R,euSurfaceWaterBodyCode,EAU ROUGE,riverWaterBody,Natural,Missing,RIV_05,BEMEUSE_RW,euSubUnitCode,INTERNATIONAL RIVER BASIN DISTRICT OF THE MEUSE,BEMEUSE_RW,euRBDCode,INTERNATIONAL RIVER BASIN DISTRICT OF THE MEUSE,F,50.41196,5.95336
BE,BERW_40099,euMonitoringSiteCode,BERW_40099,euMonitoringSiteCode,NOTAPPLICABLE,BERW06_MM35R,euSurfaceWaterBodyCode,RUISSEAU DE GELBRESSEE,riverWaterBody,HMWB,Not a reservoir,RIV_14,BEMEUSE_RW,euSubUnitCode,INTERNATIONAL RIVER BASIN DISTRICT OF THE MEUSE,BEMEUSE_RW,euRBDCode,INTERNATIONAL RIVER BASIN DISTRICT OF THE MEUSE,F,50.49217,4.95552
BE,BERW_40112,euMonitoringSiteCode,BERW_40112,euMonitoringSiteCode,NOTAPPLICABLE,BERW06_ML09R,euSurfaceWaterBodyCode,STRANGE,riverWaterBody,Natural,Missing,RIV_05,BERHIN_RW,euSubUnitCode,INTERNATIONAL RIVER BASIN DISTRICT OF THE RHINE,BERHIN_RW,euRBDCode,INTERNATIONAL RIVER BASIN DISTRICT OF THE RHINE,F,49.91681,5.69212
BE,BERW_40117,euMonitoringSiteCode,BERW_40117,euMonitoringSiteCode,NOTAPPLICABLE,BERW06_MM27R,euSurfaceWaterBodyCode,MOLIGNEE II,riverWaterBody,Natural,Missing,RIV_14,BEMEUSE_RW,euSubUnitCode,INTERNATIONAL RIVER BASIN DISTRICT OF THE MEUSE,BEMEUSE_RW,euRBDCode,INTERNATIONAL RIVER BASIN DISTRICT OF THE MEUSE,F,50.30326,4.76042
BE,BERW_40118,euMonitoringSiteCode,BERW_40118,euMonitoringSiteCode,NOTAPPLICABLE,BERW06_MM22R,euSurfaceWaterBodyCode,RUISSEAU DE FERON,riverWaterBody,Natural,Missing,RIV_14,BEMEUSE_RW,euSubUnitCode,INTERNATIONAL RIVER BASIN DISTRICT OF THE MEUSE,BEMEUSE_RW,euRBDCode,INTERNATIONAL RIVER BASIN DISTRICT OF THE MEUSE,F,50.22299,4.80497
BE,BERW_40119,euMonitoringSiteCode,BERW_40119,euMonitoringSiteCode,NOTAPPLICABLE,BERW06_EL02R,euSurfaceWaterBodyCode,DOUVE I,riverWaterBody,Natural,Missing,RIV_20,BEESCAUT_RW,euSubUnitCode,INTERNATIONAL RIVER BASIN DISTRICT OF THE SCHELDT,BEESCAUT_RW,euRBDCode,INTERNATIONAL RIVER BASIN DISTRICT OF THE SCHELDT,F,50.75446,2.93988
BE,BERW_40120,euMonitoringSiteCode,BERW_40120,euMonitoringSiteCode,NOTAPPLICABLE,BERW06_EL03R,euSurfaceWaterBodyCode,RUISSEAU DE KORTEKEER,riverWaterBody,Natural,Missing,RIV_20,BEESCAUT_RW,euSubUnitCode,INTERNATIONAL RIVER BASIN DISTRICT OF THE SCHELDT,BEESCAUT_RW,euRBDCode,INTERNATIONAL RIVER BASIN DISTRICT OF THE SCHELDT,F,50.76325,2.99595
BE,BERW_40121,euMonitoringSiteCode,BERW_40121,euMonitoringSiteCode,NOTAPPLICABLE,BERW06_EL04R,euSurfaceWaterBodyCode,HAUTE PLANCHE,riverWaterBody,Natural,Missing,RIV_20,BEESCAUT_RW,euSubUnitCode,INTERNATIONAL RIVER BASIN DISTRICT OF THE SCHELDT,BEESCAUT_RW,euRBDCode,INTERNATIONAL RIVER BASIN DISTRICT OF THE SCHELDT,F,50.77632,3.02133
BE,BERW_40123,euMonitoringSiteCode,BERW_40123,euMonitoringSiteCode,NOTAPPLICABLE,BERW06_EL16R,euSurfaceWaterBodyCode,RIEU DE LHAYE,riverWaterBody,Natural,Missing,RIV_20,BEESCAUT_RW,euSubUnitCode,INTERNATIONAL RIVER BASIN DISTRICT OF THE SCHELDT,BEESCAUT_RW,euRBDCode,INTERNATIONAL RIVER BASIN DISTRICT OF THE SCHELDT,F,50.74204,3.43811
BE,BERW_40124,euMonitoringSiteCode,BERW_40124,euMonitoringSiteCode,NOTAPPLICABLE,BERW06_EL13R,euSurfaceWaterBodyCode,RIEU DU PAS A WASMES,riverWaterBody,HMWB,Not a reservoir,RIV_20,BEESCAUT_RW,euSubUnitCode,INTERNATIONAL RIVER BASIN DISTRICT OF THE SCHELDT,BEESCAUT_RW,euRBDCode,INTERNATIONAL RIVER BASIN DISTRICT OF THE SCHELDT,F,50.67396,3.33173
BE,BERW_40125,euMonitoringSiteCode,BERW_40125,euMonitoringSiteCode,NOTAPPLICABLE,BERW06_EL12R,euSurfaceWaterBodyCode,RIEU DE TEMPLEUVE,riverWaterBody,HMWB,Not a reservoir,RIV_20,BEESCAUT_RW,euSubUnitCode,INTERNATIONAL RIVER BASIN DISTRICT OF THE SCHELDT,BEESCAUT_RW,euRBDCode,INTERNATIONAL RIVER BASIN DISTRICT OF THE SCHELDT,F,50.64048,3.34222
BE,BERW_40126,euMonitoringSiteCode,BERW_40126,euMonitoringSiteCode,NOTAPPLICABLE,BERW06_EL11R,euSurfaceWaterBodyCode,MELLE,riverWaterBody,HMWB,Not a reservoir,RIV_20,BEESCAUT_RW,euSubUnitCode,INTERNATIONAL RIVER BASIN DISTRICT OF THE SCHELDT,BEESCAUT_RW,euRBDCode,INTERNATIONAL RIVER BASIN DISTRICT OF THE SCHELDT,F,50.63655,3.40003
BE,BERW_40127,euMonitoringSiteCode,BERW_40127,euMonitoringSiteCode,NOTAPPLICABLE,BERW06_EL09R,euSurfaceWaterBodyCode,RIEU DES BARGES,riverWaterBody,HMWB,Not a reservoir,RIV_20,BEESCAUT_RW,euSubUnitCode,INTERNATIONAL RIVER BASIN DISTRICT OF THE SCHELDT,BEESCAUT_RW,euRBDCode,INTERNATIONAL RIVER BASIN DISTRICT OF THE SCHELDT,F,50.58685,3.38797
BE,BERW_40128,euMonitoringSiteCode,BERW_40128,euMonitoringSiteCode,NOTAPPLICABLE,BERW06_EL08R,euSurfaceWaterBodyCode,RUISSEAU DES PRES,riverWaterBody,Natural,Missing,RIV_20,BEESCAUT_RW,euSubUnitCode,INTERNATIONAL RIVER BASIN DISTRICT OF THE SCHELDT,BEESCAUT_RW,euRBDCode,INTERNATIONAL RIVER BASIN DISTRICT OF THE SCHELDT,F,50.53961,3.42902
BE,BERW_40129,euMonitoringSiteCode,BERW_40129,euMonitoringSiteCode,NOTAPPLICABLE,BERW06_DG04R,euSurfaceWaterBodyCode,PISSELET,riverWaterBody,Natural,Missing,RIV_20,BEESCAUT_RW,euSubUnitCode,INTERNATIONAL RIVER BASIN DISTRICT OF THE SCHELDT,BEESCAUT_RW,euRBDCode,INTERNATIONAL RIVER BASIN DISTRICT OF THE SCHELDT,F,50.73691,4.65872
BE,BERW_40130,euMonitoringSiteCode,BERW_40130,euMonitoringSiteCode,NOTAPPLICABLE,BERW06_DG13R,euSurfaceWaterBodyCode,SCHOORBROEK,riverWaterBody,Natural,Missing,RIV_20,BEESCAUT_RW,euSubUnitCode,INTERNATIONAL RIVER BASIN DISTRICT OF THE SCHELDT,BEESCAUT_RW,euRBDCode,INTERNATIONAL RIVER BASIN DISTRICT OF THE SCHELDT,F,50.77223,4.83137
BE,BERW_40132,euMonitoringSiteCode,BERW_40132,euMonitoringSiteCode,NOTAPPLICABLE,BERW06_DG11R,euSurfaceWaterBodyCode,RUISSEAU DE GOLLARD,riverWaterBody,Natural,Missing,RIV_20,BEESCAUT_RW,euSubUnitCode,INTERNATIONAL RIVER BASIN DISTRICT OF THE SCHELDT,BEESCAUT_RW,euRBDCode,INTERNATIONAL RIVER BASIN DISTRICT OF THE SCHELDT,F,50.74138,4.96999
